{
  "clinics": [
    {
      "sn": 1,
      "district": "Amritsar",
      "name": "Drug Rehabilitation Centre, Dhobhi Ghat, Amritsar",
      "latitude": 31.6483,
      "longitude": 74.88383,
      "status": "Functional"
    },
    {
      "sn": 2,
      "district": "Amritsar",
      "name": "Central Jail, Amritsar",
      "latitude": 31.601132794958,
      "longitude": 74.8433260819208,
      "status": "Functional"
    },
    {
      "sn": 3,
      "district": "Amritsar",
      "name": "PHC Chawinda Devi",
      "latitude": 31.71625,
      "longitude": 75.09745,
      "status": "Functional"
    },
    {
      "sn": 4,
      "district": "Amritsar",
      "name": "SDH Baba Bakala",
      "latitude": 31.5574014632461,
      "longitude": 75.2666556406716,
      "status": "Functional"
    },
    {
      "sn": 5,
      "district": "Amritsar",
      "name": "SDH Ajnala",
      "latitude": 31.84391,
      "longitude": 74.76251,
      "status": "Functional"
    },
    {
      "sn": 6,
      "district": "Amritsar",
      "name": "CHC Tarsika",
      "latitude": 31.6440255198996,
      "longitude": 75.119300013725,
      "status": "Functional"
    },
    {
      "sn": 7,
      "district": "Amritsar",
      "name": "CHC Lopoke",
      "latitude": 31.7181101607935,
      "longitude": 74.6266078723938,
      "status": "Functional"
    },
    {
      "sn": 8,
      "district": "Amritsar",
      "name": "CHC Majitha",
      "latitude": 31.75736,
      "longitude": 74.96097,
      "status": "Functional"
    },
    {
      "sn": 9,
      "district": "Amritsar",
      "name": "CHC Manawala",
      "latitude": 31.58336,
      "longitude": 74.98572,
      "status": "Functional"
    },
    {
      "sn": 10,
      "district": "Amritsar",
      "name": "CHC Verka",
      "latitude": 31.6625009889322,
      "longitude": 74.9266259819238,
      "status": "Functional"
    },
    {
      "sn": 11,
      "district": "Amritsar",
      "name": "CHC Mehta",
      "latitude": 31.6759,
      "longitude": 75.2508,
      "status": "Functional"
    },
    {
      "sn": 12,
      "district": "Amritsar",
      "name": "Maqboolpura Drug Hotspot Treatment",
      "latitude": 31.6268967,
      "longitude": 74.901426,
      "status": "Functional"
    },
    {
      "sn": 13,
      "district": "Amritsar",
      "name": "SHC Sultanwind Pilot Project",
      "latitude": 31.6031,
      "longitude": 74.9091,
      "status": "Functional"
    },
    {
      "sn": 14,
      "district": "Amritsar",
      "name": "PHC Raja Sansi",
      "latitude": 31.7218706347681,
      "longitude": 74.8011543377465,
      "status": "Functional"
    },
    {
      "sn": 15,
      "district": "Amritsar",
      "name": "PHC Khalchian",
      "latitude": 31.54964,
      "longitude": 75.17496,
      "status": "Functional"
    },
    {
      "sn": 16,
      "district": "Amritsar",
      "name": "PHC Butala",
      "latitude": 31.61192,
      "longitude": 75.32496,
      "status": "Functional"
    },
    {
      "sn": 17,
      "district": "Amritsar",
      "name": "PHC Attari",
      "latitude": 31.604767552904,
      "longitude": 74.6077802759635,
      "status": "Functional"
    },
    {
      "sn": 20,
      "district": "Amritsar",
      "name": "PHC Veer Pal",
      "latitude": 31.54762,
      "longitude": 74.91559,
      "status": "Functional"
    },
    {
      "sn": 21,
      "district": "Amritsar",
      "name": "PHC Wadla Viram",
      "latitude": 31.8221,
      "longitude": 74.9846,
      "status": "Functional"
    },
    {
      "sn": 22,
      "district": "Amritsar",
      "name": "PHC Ramdas",
      "latitude": 31.96279,
      "longitude": 74.90555,
      "status": "Functional"
    },
    {
      "sn": 23,
      "district": "Amritsar",
      "name": "PHC Gaggo Mehal",
      "latitude": 31.90971,
      "longitude": 74.811508,
      "status": "Functional"
    },
    {
      "sn": 24,
      "district": "Amritsar",
      "name": "Bhai Mohkam Singh Memorial Satelite Hospital",
      "latitude": 31.61035,
      "longitude": 74.87544,
      "status": "Functional"
    },
    {
      "sn": 25,
      "district": "Amritsar",
      "name": "UPHC Bhagtanwala",
      "latitude": 31.6106,
      "longitude": 74.87221,
      "status": "Functional"
    },
    {
      "sn": 26,
      "district": "Amritsar",
      "name": "UPHC Gate Khazana",
      "latitude": 31.62182,
      "longitude": 74.86585,
      "status": "Functional"
    },
    {
      "sn": 27,
      "district": "Amritsar",
      "name": "UPHC Gawal Mandi",
      "latitude": 31.63546,
      "longitude": 74.85338,
      "status": "Functional"
    },
    {
      "sn": 28,
      "district": "Amritsar",
      "name": "UPHC Haripura",
      "latitude": 31.62733,
      "longitude": 74.84911,
      "status": "Functional"
    },
    {
      "sn": 29,
      "district": "Amritsar",
      "name": "UPHC Jodhnagar",
      "latitude": 31.61241,
      "longitude": 74.89024,
      "status": "Functional"
    },
    {
      "sn": 30,
      "district": "Amritsar",
      "name": "UPHC Putligarh",
      "latitude": 31.63708,
      "longitude": 74.84453,
      "status": "Functional"
    },
    {
      "sn": 31,
      "district": "Amritsar",
      "name": "UPHC Rambagh",
      "latitude": 31.62942,
      "longitude": 74.88124,
      "status": "Functional"
    },
    {
      "sn": 32,
      "district": "Amritsar",
      "name": "Bhai Daya Singh Memorial Satelite Hospital",
      "latitude": 31.6577,
      "longitude": 74.90744,
      "status": "Functional"
    },
    {
      "sn": 33,
      "district": "Amritsar",
      "name": "Bhai Dharam Singh Memorial Satelite Hospital",
      "latitude": 31.66114,
      "longitude": 74.86696,
      "status": "Functional"
    },
    {
      "sn": 34,
      "district": "Amritsar",
      "name": "Bhai Himant Singh Memorial Satelite Hospital",
      "latitude": 31.63861,
      "longitude": 74.80843,
      "status": "Functional"
    },
    {
      "sn": 35,
      "district": "Amritsar",
      "name": "Bhai Sahib Singh Memorial Satelite Hospital",
      "latitude": 31.59718,
      "longitude": 74.8414,
      "status": "Functional"
    },
    {
      "sn": 36,
      "district": "Amritsar",
      "name": "UPHC Basant Avenue",
      "latitude": 31.65187,
      "longitude": 74.87321,
      "status": "Functional"
    },
    {
      "sn": 37,
      "district": "Amritsar",
      "name": "UPHC Chheherta",
      "latitude": 31.62818,
      "longitude": 74.80341,
      "status": "Functional"
    },
    {
      "sn": 38,
      "district": "Amritsar",
      "name": "UPHC Kangara Colony",
      "latitude": 31.63874,
      "longitude": 74.90259,
      "status": "Functional"
    },
    {
      "sn": 39,
      "district": "Amritsar",
      "name": "UPHC Kot Khalsa",
      "latitude": 31.62251,
      "longitude": 74.82738,
      "status": "Functional"
    },
    {
      "sn": 41,
      "district": "Amritsar",
      "name": "UCHC Naraingarh Chahreta",
      "latitude": 31.6293577219272,
      "longitude": 74.7790655554618,
      "status": "Functional"
    },
    {
      "sn": 42,
      "district": "Amritsar",
      "name": "CH Amritsar",
      "latitude": 31.6340509,
      "longitude": 74.8787685,
      "status": "Functional"
    },
    {
      "sn": 43,
      "district": "Amritsar",
      "name": "PHC Threawal",
      "latitude": 31.7713754191324,
      "longitude": 75.0500522684374,
      "status": "Functional"
    },
    {
      "sn": 44,
      "district": "Barnala",
      "name": "Drug Rehabilitation Centre, Sohal Patti, Barnala",
      "latitude": 30.379411,
      "longitude": 75.489424,
      "status": "Functional"
    },
    {
      "sn": 45,
      "district": "Barnala",
      "name": "SDH Tapa",
      "latitude": 30.30721,
      "longitude": 75.37315,
      "status": "Functional"
    },
    {
      "sn": 46,
      "district": "Barnala",
      "name": "CHC Dhanaula",
      "latitude": 30.28327,
      "longitude": 75.577473,
      "status": "Functional"
    },
    {
      "sn": 47,
      "district": "Barnala",
      "name": "CHC Mehal Kalan",
      "latitude": 30.5319,
      "longitude": 75.56821,
      "status": "Functional"
    },
    {
      "sn": 48,
      "district": "Barnala",
      "name": "CHC Channawal",
      "latitude": 30.50911,
      "longitude": 75.49495,
      "status": "Functional"
    },
    {
      "sn": 49,
      "district": "Barnala",
      "name": "CHC Bhadaur",
      "latitude": 30.474272,
      "longitude": 75.326645,
      "status": "Functional"
    },
    {
      "sn": 50,
      "district": "Barnala",
      "name": "DISTRICT JAIL",
      "latitude": 30.388675,
      "longitude": 75.497685,
      "status": "Functional"
    },
    {
      "sn": 51,
      "district": "Barnala",
      "name": "PHC Shekha",
      "latitude": 30.57089,
      "longitude": 75.01288,
      "status": "Non-Functional"
    },
    {
      "sn": 52,
      "district": "Barnala",
      "name": "PHC Hamidi",
      "latitude": 30.463668,
      "longitude": 75.604484,
      "status": "Functional"
    },
    {
      "sn": 53,
      "district": "Barnala",
      "name": "PHC Rurke Kalan",
      "latitude": 30.2529365,
      "longitude": 75.444979,
      "status": "Functional"
    },
    {
      "sn": 54,
      "district": "Barnala",
      "name": "PHC Sehna",
      "latitude": 30.43136,
      "longitude": 75.3759,
      "status": "Non-Functional"
    },
    {
      "sn": 55,
      "district": "Barnala",
      "name": "PHC Chhapa",
      "latitude": 30.55024,
      "longitude": 75.65039,
      "status": "Functional"
    },
    {
      "sn": 56,
      "district": "Barnala",
      "name": "UPHC Prem Nagar",
      "latitude": 30.35884,
      "longitude": 75.55372,
      "status": "Functional"
    },
    {
      "sn": 57,
      "district": "Barnala",
      "name": "UPHC Sandhu Patti",
      "latitude": 30.38206,
      "longitude": 75.54952,
      "status": "Non-Functional"
    },
    {
      "sn": 58,
      "district": "Barnala",
      "name": "CH Barnala",
      "latitude": 30.375582,
      "longitude": 75.542902,
      "status": "Functional"
    },
    {
      "sn": 59,
      "district": "Bathinda",
      "name": "DH Bathinda",
      "latitude": 30.16948,
      "longitude": 74.96507,
      "status": "Functional"
    },
    {
      "sn": 60,
      "district": "Bathinda",
      "name": "Central Jail, Bathinda",
      "latitude": 30.19659,
      "longitude": 74.95362,
      "status": "Functional"
    },
    {
      "sn": 61,
      "district": "Bathinda",
      "name": "SDH Rampura Phul",
      "latitude": 30.2701,
      "longitude": 75.2398,
      "status": "Functional"
    },
    {
      "sn": 62,
      "district": "Bathinda",
      "name": "SDH Talwandi Sabo",
      "latitude": 29.91848,
      "longitude": 75.1119,
      "status": "Functional"
    },
    {
      "sn": 63,
      "district": "Bathinda",
      "name": "CHC Bhagta",
      "latitude": 30.2661,
      "longitude": 75.858,
      "status": "Functional"
    },
    {
      "sn": 64,
      "district": "Bathinda",
      "name": "CHC Goniana",
      "latitude": 30.31991,
      "longitude": 74.91794,
      "status": "Functional"
    },
    {
      "sn": 65,
      "district": "Bathinda",
      "name": "CHC Nathana",
      "latitude": 30.3391,
      "longitude": 75.00215,
      "status": "Functional"
    },
    {
      "sn": 66,
      "district": "Bathinda",
      "name": "CHC Mehraj",
      "latitude": 30.31086,
      "longitude": 75.23732,
      "status": "Functional"
    },
    {
      "sn": 67,
      "district": "Bathinda",
      "name": "CHC Bucho Mandi",
      "latitude": 30.21323,
      "longitude": 75.0903,
      "status": "Functional"
    },
    {
      "sn": 68,
      "district": "Bathinda",
      "name": "CHC Sangat",
      "latitude": 30.211,
      "longitude": 74.94546,
      "status": "Functional"
    },
    {
      "sn": 69,
      "district": "Bathinda",
      "name": "CHC Maur Mandi",
      "latitude": 30.03166,
      "longitude": 75.24011,
      "status": "Functional"
    },
    {
      "sn": 70,
      "district": "Bathinda",
      "name": "CHC Rama Mandi",
      "latitude": 29.96155,
      "longitude": 74.94475,
      "status": "Functional"
    },
    {
      "sn": 71,
      "district": "Bathinda",
      "name": "PHC Virk Kalan",
      "latitude": 30.030166,
      "longitude": 74.82069,
      "status": "Functional"
    },
    {
      "sn": 72,
      "district": "Bathinda",
      "name": "Special Jail, Bathinda",
      "latitude": 30.19659,
      "longitude": 74.95362,
      "status": "Functional"
    },
    {
      "sn": 73,
      "district": "Bathinda",
      "name": "CHC,Ballianwali",
      "latitude": 30.2661,
      "longitude": 75.25343,
      "status": "Functional"
    },
    {
      "sn": 74,
      "district": "Bathinda",
      "name": "PHC Maiser Khana",
      "latitude": 30.03166,
      "longitude": 75.24011,
      "status": "Functional"
    },
    {
      "sn": 75,
      "district": "Bathinda",
      "name": "PHC Kotshamir",
      "latitude": 30.10875,
      "longitude": 75.091,
      "status": "Functional"
    },
    {
      "sn": 76,
      "district": "Bathinda",
      "name": "PHC Jeeda",
      "latitude": 30.37376,
      "longitude": 74.98844,
      "status": "Functional"
    },
    {
      "sn": 77,
      "district": "Bathinda",
      "name": "SDH Ghudda",
      "latitude": 30.12448,
      "longitude": 74.78928,
      "status": "Functional"
    },
    {
      "sn": 78,
      "district": "Bathinda",
      "name": "PHC Pakka Kalan",
      "latitude": 30.03494,
      "longitude": 74.85074,
      "status": "Functional"
    },
    {
      "sn": 79,
      "district": "Bathinda",
      "name": "PHC Chak Atar Singh Wala",
      "latitude": 30.04094,
      "longitude": 74.82516,
      "status": "Functional"
    },
    {
      "sn": 80,
      "district": "Bathinda",
      "name": "PHC Lehra Mohabbat",
      "latitude": 30.23853,
      "longitude": 75.16501,
      "status": "Functional"
    },
    {
      "sn": 81,
      "district": "Bathinda",
      "name": "PHC Dyal Pur Mirja",
      "latitude": 30.35155,
      "longitude": 75.08055,
      "status": "Functional"
    },
    {
      "sn": 82,
      "district": "Bathinda",
      "name": "PHC Mandi Kalan",
      "latitude": 30.2661,
      "longitude": 75.25343,
      "status": "Functional"
    },
    {
      "sn": 83,
      "district": "Bathinda",
      "name": "UPHC Beant Nagar",
      "latitude": 30.20672,
      "longitude": 74.96462,
      "status": "Functional"
    },
    {
      "sn": 84,
      "district": "Bathinda",
      "name": "UPHC Janta Nagar",
      "latitude": 30.22841,
      "longitude": 74.9278,
      "status": "Functional"
    },
    {
      "sn": 85,
      "district": "Bathinda",
      "name": "UPHC Lal Singh Basti",
      "latitude": 30.19759,
      "longitude": 74.92886,
      "status": "Functional"
    },
    {
      "sn": 86,
      "district": "Bathinda",
      "name": "UPHC Parasram Nagar",
      "latitude": 30.21084,
      "longitude": 74.92284,
      "status": "Functional"
    },
    {
      "sn": 87,
      "district": "Bathinda",
      "name": "Mandi Phul UPHC",
      "latitude": 30.31086,
      "longitude": 75.23732,
      "status": "Functional"
    },
    {
      "sn": 88,
      "district": "Faridkot",
      "name": "Drug Rehabilitation Centre, Arriyan Wala Road, Faridkot",
      "latitude": 30.68315,
      "longitude": 74.741091,
      "status": "Functional"
    },
    {
      "sn": 89,
      "district": "Faridkot",
      "name": "SDH Kot Kapura",
      "latitude": 30.585275,
      "longitude": 74.819489,
      "status": "Functional"
    },
    {
      "sn": 90,
      "district": "Faridkot",
      "name": "Central Jail Faridkot",
      "latitude": 30.6900467,
      "longitude": 74.779933,
      "status": "Functional"
    },
    {
      "sn": 91,
      "district": "Faridkot",
      "name": "CHC Baja Khana",
      "latitude": 30.4553,
      "longitude": 74.9808,
      "status": "Functional"
    },
    {
      "sn": 92,
      "district": "Faridkot",
      "name": "CHC Sadiq",
      "latitude": 30.710235,
      "longitude": 74.581997,
      "status": "Functional"
    },
    {
      "sn": 93,
      "district": "Faridkot",
      "name": "CHC Jaitu",
      "latitude": 30.44963,
      "longitude": 74.88239,
      "status": "Functional"
    },
    {
      "sn": 94,
      "district": "Faridkot",
      "name": "DH Faridkot",
      "latitude": 30.679213,
      "longitude": 74.760754,
      "status": "Functional"
    },
    {
      "sn": 95,
      "district": "Faridkot",
      "name": "PHC Golewala Aulakh Road",
      "latitude": 30.7991826,
      "longitude": 74.6941486,
      "status": "Functional"
    },
    {
      "sn": 96,
      "district": "Faridkot",
      "name": "PHC Panjgarain Kalan Aulakh Road",
      "latitude": 30.611978,
      "longitude": 74.914208,
      "status": "Functional"
    },
    {
      "sn": 97,
      "district": "Faridkot",
      "name": "PHC Jand Sahib",
      "latitude": 30.689447,
      "longitude": 74.529051,
      "status": "Functional"
    },
    {
      "sn": 98,
      "district": "Faridkot",
      "name": "PHC Guru Sar",
      "latitude": 30.5287,
      "longitude": 74.8938,
      "status": "Functional"
    },
    {
      "sn": 99,
      "district": "Faridkot",
      "name": "UPHC Balbir Basti",
      "latitude": 30.67419,
      "longitude": 74.76619,
      "status": "Functional"
    },
    {
      "sn": 100,
      "district": "Faridkot",
      "name": "UPHC GGS Faridkot",
      "latitude": 30.678472,
      "longitude": 74.740615,
      "status": "Functional"
    },
    {
      "sn": 101,
      "district": "Faridkot",
      "name": "UPHC Basti Surgapur Kotkapura",
      "latitude": 30.5796,
      "longitude": 74.8134,
      "status": "Functional"
    },
    {
      "sn": 102,
      "district": "Fatehgarh Sahib",
      "name": "Drug Rehabilitation Centre, Vill. Bahman Majra, Fatehgarh Sahib",
      "latitude": 30.6240921,
      "longitude": 76.39122,
      "status": "Functional"
    },
    {
      "sn": 103,
      "district": "Fatehgarh Sahib",
      "name": "SDH Mandi Gobindgarh",
      "latitude": 30.6686,
      "longitude": 76.2949,
      "status": "Functional"
    },
    {
      "sn": 104,
      "district": "Fatehgarh Sahib",
      "name": "CHC Chanarthal Kalan",
      "latitude": 30.5176,
      "longitude": 76.3449,
      "status": "Functional"
    },
    {
      "sn": 105,
      "district": "Fatehgarh Sahib",
      "name": "CHC Khera",
      "latitude": 30.60430672,
      "longitude": 76.48750882,
      "status": "Functional"
    },
    {
      "sn": 106,
      "district": "Fatehgarh Sahib",
      "name": "CHC Amloh",
      "latitude": 30.61,
      "longitude": 76.23,
      "status": "Functional"
    },
    {
      "sn": 107,
      "district": "Fatehgarh Sahib",
      "name": "CHC Bassi Pathana",
      "latitude": 30.7097,
      "longitude": 76.4084,
      "status": "Functional"
    },
    {
      "sn": 108,
      "district": "Fatehgarh Sahib",
      "name": "CHC Khamano",
      "latitude": 30.81725,
      "longitude": 76.35478,
      "status": "Functional"
    },
    {
      "sn": 109,
      "district": "Fatehgarh Sahib",
      "name": "PHC Nandpur Kalaur",
      "latitude": 30.71571,
      "longitude": 76.47523,
      "status": "Functional"
    },
    {
      "sn": 110,
      "district": "Fatehgarh Sahib",
      "name": "PHC Bhagrana",
      "latitude": 30.6042,
      "longitude": 76.5759,
      "status": "Functional"
    },
    {
      "sn": 111,
      "district": "Fatehgarh Sahib",
      "name": "PHC Nogawan",
      "latitude": 30.74175,
      "longitude": 76.77269,
      "status": "Non-Functional"
    },
    {
      "sn": 112,
      "district": "Fatehgarh Sahib",
      "name": "PHC Mulepur",
      "latitude": 30.4989,
      "longitude": 76.4281,
      "status": "Functional"
    },
    {
      "sn": 113,
      "district": "Fatehgarh Sahib",
      "name": "PHC Sangat Pur Sodian",
      "latitude": 30.5734,
      "longitude": 76.3607,
      "status": "Functional"
    },
    {
      "sn": 114,
      "district": "Fatehgarh Sahib",
      "name": "PHC Ladpur",
      "latitude": 30.59772,
      "longitude": 76.14948,
      "status": "Functional"
    },
    {
      "sn": 115,
      "district": "Fatehgarh Sahib",
      "name": "PHC Sanghol",
      "latitude": 30.7842,
      "longitude": 76.3921,
      "status": "Functional"
    },
    {
      "sn": 116,
      "district": "Fatehgarh Sahib",
      "name": "PHC Bhari",
      "latitude": 30.7473571,
      "longitude": 76.32545,
      "status": "Functional"
    },
    {
      "sn": 117,
      "district": "Fatehgarh Sahib",
      "name": "UPHC 1 / UPHC Gobindgarh",
      "latitude": 30.39,
      "longitude": 76.2324,
      "status": "Functional"
    },
    {
      "sn": 118,
      "district": "Fatehgarh Sahib",
      "name": "UPHC Bara",
      "latitude": 30.61528,
      "longitude": 76.3794,
      "status": "Functional"
    },
    {
      "sn": 119,
      "district": "Fatehgarh Sahib",
      "name": "CH Fatehgarh Sahib",
      "latitude": 30.6466,
      "longitude": 76.3901,
      "status": "Functional"
    },
    {
      "sn": 120,
      "district": "Fazilka",
      "name": "Drug Rehabilitation Centre, Village Jatwali, Fazilka",
      "latitude": 30.403648,
      "longitude": 74.027962,
      "status": "Functional"
    },
    {
      "sn": 121,
      "district": "Fazilka",
      "name": "SDH Abohar",
      "latitude": 30.143044,
      "longitude": 74.197077,
      "status": "Functional"
    },
    {
      "sn": 122,
      "district": "Fazilka",
      "name": "CHC Dhabwala Kalan",
      "latitude": 30.3288,
      "longitude": 74.2576,
      "status": "Functional"
    },
    {
      "sn": 123,
      "district": "Fazilka",
      "name": "CHC Khui Khera",
      "latitude": 30.295617,
      "longitude": 74.098658,
      "status": "Functional"
    },
    {
      "sn": 124,
      "district": "Fazilka",
      "name": "CHC Sito Gunno",
      "latitude": 30.028499,
      "longitude": 74.362434,
      "status": "Functional"
    },
    {
      "sn": 125,
      "district": "Fazilka",
      "name": "CHC Wahabwala",
      "latitude": 30.24745,
      "longitude": 74.01421,
      "status": "Functional"
    },
    {
      "sn": 126,
      "district": "Fazilka",
      "name": "CHC Ramsara",
      "latitude": 30.403648,
      "longitude": 74.027962,
      "status": "Functional"
    },
    {
      "sn": 127,
      "district": "Fazilka",
      "name": "CHC Jalalabadh",
      "latitude": 30.6278,
      "longitude": 74.262,
      "status": "Functional"
    },
    {
      "sn": 128,
      "district": "Fazilka",
      "name": "PHC Taliwal Bodhla",
      "latitude": 30.80093,
      "longitude": 74.51638,
      "status": "Functional"
    },
    {
      "sn": 129,
      "district": "Fazilka",
      "name": "PHC Karni Khera",
      "latitude": 30.37303,
      "longitude": 73.97988,
      "status": "Functional"
    },
    {
      "sn": 130,
      "district": "Fazilka",
      "name": "PHC Kundal",
      "latitude": 30.2146,
      "longitude": 74.2635,
      "status": "Functional"
    },
    {
      "sn": 131,
      "district": "Fazilka",
      "name": "PHC Waryam Khera",
      "latitude": 30.02303,
      "longitude": 74.08123,
      "status": "Functional"
    },
    {
      "sn": 132,
      "district": "Fazilka",
      "name": "PHC Pani Wala Mahala",
      "latitude": 30.403648,
      "longitude": 74.027962,
      "status": "Functional"
    },
    {
      "sn": 133,
      "district": "Fazilka",
      "name": "PHC Killian Wali",
      "latitude": 30.14178,
      "longitude": 74.01133,
      "status": "Functional"
    },
    {
      "sn": 134,
      "district": "Fazilka",
      "name": "PHC Kaller Khera",
      "latitude": 30.0389104567194,
      "longitude": 73.9538531876652,
      "status": "Functional"
    },
    {
      "sn": 135,
      "district": "Fazilka",
      "name": "PHC Kheowali Dhab",
      "latitude": 30.24879,
      "longitude": 74.01512,
      "status": "Functional"
    },
    {
      "sn": 136,
      "district": "Fazilka",
      "name": "PHC Jandwala Bhimeshah",
      "latitude": 30.403648,
      "longitude": 74.027962,
      "status": "Functional"
    },
    {
      "sn": 137,
      "district": "Fazilka",
      "name": "PHC Laduka Mandi",
      "latitude": 30.6874503,
      "longitude": 74.3172297,
      "status": "Functional"
    },
    {
      "sn": 138,
      "district": "Fazilka",
      "name": "PHC Ghubaya",
      "latitude": 30.56156,
      "longitude": 74.14015,
      "status": "Functional"
    },
    {
      "sn": 139,
      "district": "Fazilka",
      "name": "UPHC Guru Kirpa Colony",
      "latitude": 30.403648,
      "longitude": 74.027962,
      "status": "Functional"
    },
    {
      "sn": 140,
      "district": "Fazilka",
      "name": "UPHC Id Gah Basti",
      "latitude": 30.403648,
      "longitude": 74.027962,
      "status": "Functional"
    },
    {
      "sn": 141,
      "district": "Fazilka",
      "name": "UPHC Dhobighat Colony",
      "latitude": 30.04537,
      "longitude": 73.95427,
      "status": "Functional"
    },
    {
      "sn": 142,
      "district": "Fazilka",
      "name": "CH Fazilka",
      "latitude": 30.407174,
      "longitude": 74.026271,
      "status": "Functional"
    },
    {
      "sn": 143,
      "district": "Ferozpur",
      "name": "Drug Rehabilitation Centre, DH, Ferozpur",
      "latitude": 30.9522,
      "longitude": 74.608,
      "status": "Functional"
    },
    {
      "sn": 144,
      "district": "Ferozpur",
      "name": "SDH Zira",
      "latitude": 30.96853,
      "longitude": 74.99106,
      "status": "Functional"
    },
    {
      "sn": 145,
      "district": "Ferozpur",
      "name": "CHC Mamdot",
      "latitude": 30.8697,
      "longitude": 74.4205,
      "status": "Functional"
    },
    {
      "sn": 146,
      "district": "Ferozpur",
      "name": "CHC Guru Har Sahai",
      "latitude": 30.7142872,
      "longitude": 74.4023497,
      "status": "Functional"
    },
    {
      "sn": 147,
      "district": "Ferozpur",
      "name": "CHC Makhu",
      "latitude": 31.107153,
      "longitude": 74.976402,
      "status": "Functional"
    },
    {
      "sn": 148,
      "district": "Ferozpur",
      "name": "CHC Ferozshah",
      "latitude": 30.8777825,
      "longitude": 74.7855,
      "status": "Functional"
    },
    {
      "sn": 149,
      "district": "Ferozpur",
      "name": "Central Jail, Ferozpur",
      "latitude": 30.9509764790594,
      "longitude": 74.6154791728957,
      "status": "Functional"
    },
    {
      "sn": 150,
      "district": "Ferozpur",
      "name": "PHC Malanwala",
      "latitude": 31.050695,
      "longitude": 74.817877,
      "status": "Functional"
    },
    {
      "sn": 151,
      "district": "Ferozpur",
      "name": "PHC Nur Pur Sethan",
      "latitude": 30.87622,
      "longitude": 74.63726,
      "status": "Functional"
    },
    {
      "sn": 152,
      "district": "Ferozpur",
      "name": "PHC Arifke",
      "latitude": 31.03999,
      "longitude": 74.7425,
      "status": "Functional"
    },
    {
      "sn": 153,
      "district": "Ferozpur",
      "name": "PHC Lakho Ke Behram",
      "latitude": 30.83392,
      "longitude": 74.45792,
      "status": "Functional"
    },
    {
      "sn": 154,
      "district": "Ferozpur",
      "name": "PHC Lallae",
      "latitude": 30.84203625,
      "longitude": 74.89549532532,
      "status": "Functional"
    },
    {
      "sn": 155,
      "district": "Ferozpur",
      "name": "PHC Mudki",
      "latitude": 30.77583,
      "longitude": 74.88225,
      "status": "Functional"
    },
    {
      "sn": 156,
      "district": "Ferozpur",
      "name": "PHC Sohan Garh",
      "latitude": 30.6111403,
      "longitude": 74.3867852,
      "status": "Functional"
    },
    {
      "sn": 157,
      "district": "Ferozpur",
      "name": "PHC Jiwa Arain",
      "latitude": 30.6931152,
      "longitude": 74.3228857,
      "status": "Functional"
    },
    {
      "sn": 158,
      "district": "Ferozpur",
      "name": "PHC Kassoana",
      "latitude": 30.95004,
      "longitude": 74.88986,
      "status": "Functional"
    },
    {
      "sn": 159,
      "district": "Ferozpur",
      "name": "PHC Wakilan Wala",
      "latitude": 30.590607,
      "longitude": 75.280771,
      "status": "Functional"
    },
    {
      "sn": 160,
      "district": "Ferozpur",
      "name": "UPHC Cantt",
      "latitude": 30.9234214038953,
      "longitude": 74.6191653074269,
      "status": "Functional"
    },
    {
      "sn": 161,
      "district": "Ferozpur",
      "name": "UPHC City 1",
      "latitude": 30.9384675,
      "longitude": 74.6236711,
      "status": "Functional"
    },
    {
      "sn": 162,
      "district": "Gurdaspur",
      "name": "Drug Rehabilitation Centre, Vill. Jeevanwal Babri, Gurdaspur",
      "latitude": 32.01675,
      "longitude": 75.38445,
      "status": "Functional"
    },
    {
      "sn": 163,
      "district": "Gurdaspur",
      "name": "Central Jail, Gurdaspur",
      "latitude": 32.0480010996719,
      "longitude": 75.4057428242709,
      "status": "Functional"
    },
    {
      "sn": 164,
      "district": "Gurdaspur",
      "name": "SDH Batala",
      "latitude": 31.8205869263857,
      "longitude": 75.2005888671267,
      "status": "Functional"
    },
    {
      "sn": 165,
      "district": "Gurdaspur",
      "name": "CHC Singowal",
      "latitude": 32.12170946,
      "longitude": 75.47832107,
      "status": "Functional"
    },
    {
      "sn": 166,
      "district": "Gurdaspur",
      "name": "CHC Bham",
      "latitude": 31.780879,
      "longitude": 75.451318,
      "status": "Functional"
    },
    {
      "sn": 167,
      "district": "Gurdaspur",
      "name": "CHC Ghuman",
      "latitude": 31.690526,
      "longitude": 75.376256,
      "status": "Functional"
    },
    {
      "sn": 168,
      "district": "Gurdaspur",
      "name": "CHC Qadian",
      "latitude": 31.811791,
      "longitude": 75.369341,
      "status": "Functional"
    },
    {
      "sn": 169,
      "district": "Gurdaspur",
      "name": "CHC Dera Baba Nanak",
      "latitude": 32.0338283879178,
      "longitude": 75.028168766598,
      "status": "Functional"
    },
    {
      "sn": 170,
      "district": "Gurdaspur",
      "name": "CHC Fatehgarh Churian",
      "latitude": 31.8634,
      "longitude": 74.9505,
      "status": "Functional"
    },
    {
      "sn": 171,
      "district": "Gurdaspur",
      "name": "CHC Kalanaur",
      "latitude": 32.0121653145617,
      "longitude": 75.1466131210377,
      "status": "Functional"
    },
    {
      "sn": 172,
      "district": "Gurdaspur",
      "name": "CHC Kahnuwan",
      "latitude": 31.90658,
      "longitude": 75.446115,
      "status": "Functional"
    },
    {
      "sn": 173,
      "district": "Gurdaspur",
      "name": "CHC Bhaini Mia Khan",
      "latitude": 31.880579,
      "longitude": 75.510449,
      "status": "Functional"
    },
    {
      "sn": 174,
      "district": "Gurdaspur",
      "name": "CHC Naushera Majha Singh",
      "latitude": 31.9007566790646,
      "longitude": 75.2840504338726,
      "status": "Functional"
    },
    {
      "sn": 175,
      "district": "Gurdaspur",
      "name": "CHC Dhariwal",
      "latitude": 31.9537,
      "longitude": 75.3151,
      "status": "Functional"
    },
    {
      "sn": 176,
      "district": "Gurdaspur",
      "name": "CHC Kot Santokh Rai",
      "latitude": 31.9517,
      "longitude": 75.2965,
      "status": "Functional"
    },
    {
      "sn": 177,
      "district": "Gurdaspur",
      "name": "CHC Purana Shalla",
      "latitude": 32.041943,
      "longitude": 75.405334,
      "status": "Functional"
    },
    {
      "sn": 178,
      "district": "Gurdaspur",
      "name": "PHC Wadala Bangar",
      "latitude": 31.95495,
      "longitude": 75.15993,
      "status": "Functional"
    },
    {
      "sn": 180,
      "district": "Gurdaspur",
      "name": "PHC Sathoha",
      "latitude": 31.8688613833257,
      "longitude": 75.2855576710859,
      "status": "Functional"
    },
    {
      "sn": 181,
      "district": "Gurdaspur",
      "name": "PHC Ranjit Bagh",
      "latitude": 31.1724,
      "longitude": 75.14993,
      "status": "Functional"
    },
    {
      "sn": 182,
      "district": "Gurdaspur",
      "name": "PHC Behrampur",
      "latitude": 32.100905,
      "longitude": 75.37115,
      "status": "Functional"
    },
    {
      "sn": 183,
      "district": "Gurdaspur",
      "name": "PHC Marara",
      "latitude": 31.71287,
      "longitude": 75.04385,
      "status": "Functional"
    },
    {
      "sn": 184,
      "district": "Gurdaspur",
      "name": "PHC Jharauli",
      "latitude": 32.1169532,
      "longitude": 75.5480421,
      "status": "Functional"
    },
    {
      "sn": 185,
      "district": "Gurdaspur",
      "name": "PHC Dorangla",
      "latitude": 32.0988503,
      "longitude": 75.306968,
      "status": "Functional"
    },
    {
      "sn": 186,
      "district": "Gurdaspur",
      "name": "PHC Jaura Chittron",
      "latitude": 32.01703,
      "longitude": 75.29331,
      "status": "Functional"
    },
    {
      "sn": 187,
      "district": "Gurdaspur",
      "name": "PHC Bhular",
      "latitude": 31.8588498,
      "longitude": 75.2164411,
      "status": "Functional"
    },
    {
      "sn": 188,
      "district": "Gurdaspur",
      "name": "PHC Panj Garaian",
      "latitude": 31.774042,
      "longitude": 75.282257,
      "status": "Functional"
    },
    {
      "sn": 189,
      "district": "Gurdaspur",
      "name": "PHC Wadala Garanthian",
      "latitude": 31.818792,
      "longitude": 75.293167,
      "status": "Functional"
    },
    {
      "sn": 191,
      "district": "Gurdaspur",
      "name": "UPHC 1/ UPHC Batala",
      "latitude": 31.8285809316832,
      "longitude": 75.211842953096,
      "status": "Functional"
    },
    {
      "sn": 192,
      "district": "Gurdaspur",
      "name": "UPHC Chander Nagar",
      "latitude": 31.82628,
      "longitude": 75.20278,
      "status": "Functional"
    },
    {
      "sn": 193,
      "district": "Gurdaspur",
      "name": "UPHC Maan Kaur Singh",
      "latitude": 32.04078,
      "longitude": 75.42798,
      "status": "Functional"
    },
    {
      "sn": 194,
      "district": "Gurdaspur",
      "name": "Rangar Nangal",
      "latitude": 31.719643,
      "longitude": 75.242463,
      "status": "Functional"
    },
    {
      "sn": 195,
      "district": "Gurdaspur",
      "name": "PHC Gill Manj",
      "latitude": 31.882582,
      "longitude": 75.375481,
      "status": "Functional"
    },
    {
      "sn": 196,
      "district": "Gurdaspur",
      "name": "PHC Shri Hargobind Pur",
      "latitude": 31.682137,
      "longitude": 75.472548,
      "status": "Functional"
    },
    {
      "sn": 197,
      "district": "Hoshiarpur",
      "name": "DDRC, Mohalla Fatehgarh, Hoshiarpur",
      "latitude": 31.52209,
      "longitude": 75.9122,
      "status": "Functional"
    },
    {
      "sn": 198,
      "district": "Hoshiarpur",
      "name": "Central Jail, Hoshiarpur",
      "latitude": 31.527355,
      "longitude": 75.913673,
      "status": "Functional"
    },
    {
      "sn": 199,
      "district": "Hoshiarpur",
      "name": "SDH Garhshankar",
      "latitude": 31.21344,
      "longitude": 76.15054,
      "status": "Functional"
    },
    {
      "sn": 200,
      "district": "Hoshiarpur",
      "name": "SDH Mukerian",
      "latitude": 31.9502,
      "longitude": 75.6133,
      "status": "Functional"
    },
    {
      "sn": 201,
      "district": "Hoshiarpur",
      "name": "SDH Dasuya",
      "latitude": 31.8076,
      "longitude": 75.6663,
      "status": "Functional"
    },
    {
      "sn": 202,
      "district": "Hoshiarpur",
      "name": "CHC Mahalpur",
      "latitude": 31.363,
      "longitude": 76.038,
      "status": "Functional"
    },
    {
      "sn": 203,
      "district": "Hoshiarpur",
      "name": "CHC Tanda",
      "latitude": 31.6758,
      "longitude": 75.6349,
      "status": "Functional"
    },
    {
      "sn": 204,
      "district": "Hoshiarpur",
      "name": "CHC Sham Churasi",
      "latitude": 31.4997,
      "longitude": 75.7494,
      "status": "Functional"
    },
    {
      "sn": 205,
      "district": "Hoshiarpur",
      "name": "CHC Hazipur",
      "latitude": 31.98,
      "longitude": 75.76,
      "status": "Functional"
    },
    {
      "sn": 206,
      "district": "Hoshiarpur",
      "name": "CHC Budhabar",
      "latitude": 31.95414,
      "longitude": 75.7535,
      "status": "Functional"
    },
    {
      "sn": 207,
      "district": "Hoshiarpur",
      "name": "CHC Bhunga",
      "latitude": 31.52735,
      "longitude": 75.91367,
      "status": "Functional"
    },
    {
      "sn": 208,
      "district": "Hoshiarpur",
      "name": "CHC Harta Badla",
      "latitude": 31.527355,
      "longitude": 75.913673,
      "status": "Functional"
    },
    {
      "sn": 209,
      "district": "Hoshiarpur",
      "name": "CHC Bhol Kalota",
      "latitude": 31.8851,
      "longitude": 75.92469,
      "status": "Functional"
    },
    {
      "sn": 210,
      "district": "Hoshiarpur",
      "name": "CHC Kamahi Devi",
      "latitude": 31.57325,
      "longitude": 75.8915,
      "status": "Functional"
    },
    {
      "sn": 211,
      "district": "Hoshiarpur",
      "name": "CHC Mand Mandher",
      "latitude": 31.77555,
      "longitude": 75.7376,
      "status": "Functional"
    },
    {
      "sn": 212,
      "district": "Hoshiarpur",
      "name": "CHC Hariana",
      "latitude": 31.6364,
      "longitude": 75.8419,
      "status": "Functional"
    },
    {
      "sn": 213,
      "district": "Hoshiarpur",
      "name": "CHC Binewal",
      "latitude": 31.2815,
      "longitude": 76.2596,
      "status": "Functional"
    },
    {
      "sn": 214,
      "district": "Hoshiarpur",
      "name": "PHC Khunkhun Kalan",
      "latitude": 31.7428716061102,
      "longitude": 75.6775832377476,
      "status": "Functional"
    },
    {
      "sn": 215,
      "district": "Hoshiarpur",
      "name": "PHC Bhangela",
      "latitude": 32.0169205383896,
      "longitude": 75.6135524751151,
      "status": "Functional"
    },
    {
      "sn": 216,
      "district": "Hoshiarpur",
      "name": "PHC Phuglana",
      "latitude": 31.3897939923385,
      "longitude": 75.8325737474319,
      "status": "Functional"
    },
    {
      "sn": 217,
      "district": "Hoshiarpur",
      "name": "PHC Paldi",
      "latitude": 31.3274341908838,
      "longitude": 75.9970176039466,
      "status": "Functional"
    },
    {
      "sn": 218,
      "district": "Hoshiarpur",
      "name": "PHC Jejon",
      "latitude": 31.3478495564061,
      "longitude": 76.146296564528,
      "status": "Functional"
    },
    {
      "sn": 219,
      "district": "Hoshiarpur",
      "name": "PHC  Possi",
      "latitude": 31.2673754216712,
      "longitude": 76.0518865772561,
      "status": "Functional"
    },
    {
      "sn": 220,
      "district": "Hoshiarpur",
      "name": "PHC  Rampura Bilron",
      "latitude": 31.2716841187163,
      "longitude": 76.1329386985791,
      "status": "Functional"
    },
    {
      "sn": 221,
      "district": "Hoshiarpur",
      "name": "PHC  Binjon",
      "latitude": 31.2712275913228,
      "longitude": 76.0014122124025,
      "status": "Functional"
    },
    {
      "sn": 222,
      "district": "Hoshiarpur",
      "name": "PHC Janauri",
      "latitude": 31.7134899438757,
      "longitude": 75.8935579017475,
      "status": "Functional"
    },
    {
      "sn": 223,
      "district": "Hoshiarpur",
      "name": "PHC Badla",
      "latitude": 31.4012975001995,
      "longitude": 75.9101302438667,
      "status": "Functional"
    },
    {
      "sn": 224,
      "district": "Hoshiarpur",
      "name": "UPHC Islamabad",
      "latitude": 31.51687,
      "longitude": 75.9306,
      "status": "Functional"
    },
    {
      "sn": 226,
      "district": "Hoshiarpur",
      "name": "PHC Chaukowal",
      "latitude": 31.550774603218,
      "longitude": 75.7863510070495,
      "status": "Functional"
    },
    {
      "sn": 227,
      "district": "Jalandhar",
      "name": "Drug Rehabilitation Centre, Village Shekha, Jalandhar",
      "latitude": 31.3566214044894,
      "longitude": 75.614918737249,
      "status": "Functional"
    },
    {
      "sn": 228,
      "district": "Jalandhar",
      "name": "SDH Phillaur",
      "latitude": 31.0217464720565,
      "longitude": 75.7900553121313,
      "status": "Functional"
    },
    {
      "sn": 229,
      "district": "Jalandhar",
      "name": "SDH Nakodar",
      "latitude": 31.1281533188056,
      "longitude": 75.4760957023439,
      "status": "Functional"
    },
    {
      "sn": 230,
      "district": "Jalandhar",
      "name": "CHC Adampur",
      "latitude": 31.4302496314307,
      "longitude": 75.7156300526201,
      "status": "Functional"
    },
    {
      "sn": 231,
      "district": "Jalandhar",
      "name": "CHC Apra",
      "latitude": 31.0867725589649,
      "longitude": 75.87829394282,
      "status": "Functional"
    },
    {
      "sn": 232,
      "district": "Jalandhar",
      "name": "CHC Bara Pind",
      "latitude": 31.0882268430749,
      "longitude": 75.885878422096,
      "status": "Functional"
    },
    {
      "sn": 233,
      "district": "Jalandhar",
      "name": "CHC Noor Mahal",
      "latitude": 31.1034213758255,
      "longitude": 75.5935343176179,
      "status": "Functional"
    },
    {
      "sn": 234,
      "district": "Jalandhar",
      "name": "CHC Bundala",
      "latitude": 31.1424288619997,
      "longitude": 75.6635820888518,
      "status": "Functional"
    },
    {
      "sn": 235,
      "district": "Jalandhar",
      "name": "CHC Kala Bakra",
      "latitude": 31.4766222773387,
      "longitude": 75.6297449042048,
      "status": "Functional"
    },
    {
      "sn": 236,
      "district": "Jalandhar",
      "name": "CHC Kartarpur",
      "latitude": 31.263365,
      "longitude": 75.295449,
      "status": "Functional"
    },
    {
      "sn": 237,
      "district": "Jalandhar",
      "name": "CHC Shankar",
      "latitude": 31.1497144555667,
      "longitude": 75.5345915055413,
      "status": "Functional"
    },
    {
      "sn": 238,
      "district": "Jalandhar",
      "name": "CHC Lohian",
      "latitude": 31.1570047500116,
      "longitude": 75.2129244652786,
      "status": "Functional"
    },
    {
      "sn": 239,
      "district": "Jalandhar",
      "name": "CHC Shahkot",
      "latitude": 31.0811281459713,
      "longitude": 75.3365674864636,
      "status": "Functional"
    },
    {
      "sn": 240,
      "district": "Jalandhar",
      "name": "CHC PAP",
      "latitude": 31.3118637673291,
      "longitude": 75.6177984348146,
      "status": "Non-Functional"
    },
    {
      "sn": 241,
      "district": "Jalandhar",
      "name": "CHC Basti Gunjan",
      "latitude": 31.3211501193868,
      "longitude": 75.5520277652387,
      "status": "Functional"
    },
    {
      "sn": 242,
      "district": "Jalandhar",
      "name": "DH Jalandhar",
      "latitude": 31.326343292509,
      "longitude": 75.5730448967966,
      "status": "Functional"
    },
    {
      "sn": 243,
      "district": "Jalandhar",
      "name": "PHC Buttran",
      "latitude": 31.5474691838463,
      "longitude": 75.5813782329726,
      "status": "Non-Functional"
    },
    {
      "sn": 245,
      "district": "Jalandhar",
      "name": "PHC Chitti",
      "latitude": 31.2361531116764,
      "longitude": 75.4771822961261,
      "status": "Functional"
    },
    {
      "sn": 246,
      "district": "Jalandhar",
      "name": "PHC Dosanjh Kalan",
      "latitude": 31.1662677205264,
      "longitude": 75.8392657752907,
      "status": "Non-Functional"
    },
    {
      "sn": 247,
      "district": "Jalandhar",
      "name": "PHC Bilga",
      "latitude": 31.0565726909012,
      "longitude": 75.6581552692916,
      "status": "Functional"
    },
    {
      "sn": 248,
      "district": "Jalandhar",
      "name": "PHC Kot Badal Khan",
      "latitude": 31.0206460698772,
      "longitude": 75.6205851042946,
      "status": "Functional"
    },
    {
      "sn": 249,
      "district": "Jalandhar",
      "name": "PHC Jamsher Khas",
      "latitude": 31.234394270257,
      "longitude": 75.6219726292664,
      "status": "Functional"
    },
    {
      "sn": 250,
      "district": "Jalandhar",
      "name": "PHC Jandiala",
      "latitude": 31.2344676600266,
      "longitude": 75.6225841728913,
      "status": "Functional"
    },
    {
      "sn": 251,
      "district": "Jalandhar",
      "name": "PHC Mehatpur",
      "latitude": 31.0457656623953,
      "longitude": 75.4765221213137,
      "status": "Functional"
    },
    {
      "sn": 254,
      "district": "Jalandhar",
      "name": "UPHC Dhanowali",
      "latitude": 31.3051596384251,
      "longitude": 75.6549213431279,
      "status": "Non-Functional"
    },
    {
      "sn": 255,
      "district": "Jalandhar",
      "name": "UPHC Garha",
      "latitude": 31.2966711279482,
      "longitude": 75.5987624176234,
      "status": "Functional"
    },
    {
      "sn": 256,
      "district": "Jalandhar",
      "name": "UPHC Kazi Mandi",
      "latitude": 31.33461,
      "longitude": 75.5879,
      "status": "Functional"
    },
    {
      "sn": 257,
      "district": "Jalandhar",
      "name": "UPHC Maqsudan",
      "latitude": 31.36011,
      "longitude": 75.55335,
      "status": "Functional"
    },
    {
      "sn": 258,
      "district": "Jalandhar",
      "name": "UPHC Basti Bawa Khel",
      "latitude": 31.3406451776734,
      "longitude": 75.5475493114723,
      "status": "Functional"
    },
    {
      "sn": 259,
      "district": "Jalandhar",
      "name": "UPHC Basti Danish Manda",
      "latitude": 31.31861,
      "longitude": 75.54248,
      "status": "Functional"
    },
    {
      "sn": 260,
      "district": "Jalandhar",
      "name": "UPHC Basti Nao",
      "latitude": 31.3204779123501,
      "longitude": 75.5488371758249,
      "status": "Non-Functional"
    },
    {
      "sn": 261,
      "district": "Jalandhar",
      "name": "UPHC Bhargo Camp",
      "latitude": 31.31371,
      "longitude": 75.56552,
      "status": "Functional"
    },
    {
      "sn": 262,
      "district": "Jalandhar",
      "name": "PHC Rupewali",
      "latitude": 31.1496381199512,
      "longitude": 75.3053636848952,
      "status": "Non-Functional"
    },
    {
      "sn": 263,
      "district": "Jalandhar",
      "name": "UCHC Khurla Kingra",
      "latitude": 31.2949740053647,
      "longitude": 75.5547457270127,
      "status": "Functional"
    },
    {
      "sn": 264,
      "district": "Jalandhar",
      "name": "UCHC Dada Colony",
      "latitude": 31.3554902573969,
      "longitude": 75.5757772703394,
      "status": "Functional"
    },
    {
      "sn": 265,
      "district": "Kapurthala",
      "name": "Drug Rehabilitation Centre, DH Kapurthala",
      "latitude": 31.3757623836101,
      "longitude": 75.3820129057133,
      "status": "Functional"
    },
    {
      "sn": 266,
      "district": "Kapurthala",
      "name": "Central Jail, Kapurthala",
      "latitude": 31.4360606938518,
      "longitude": 75.3433111819128,
      "status": "Functional"
    },
    {
      "sn": 267,
      "district": "Kapurthala",
      "name": "SDH Phagwara",
      "latitude": 31.2306358469839,
      "longitude": 75.7637814840941,
      "status": "Functional"
    },
    {
      "sn": 268,
      "district": "Kapurthala",
      "name": "SDH Sultanpur Lodhi",
      "latitude": 31.2182223362392,
      "longitude": 75.1924602026588,
      "status": "Functional"
    },
    {
      "sn": 269,
      "district": "Kapurthala",
      "name": "SDH Bholath",
      "latitude": 31.5397415821785,
      "longitude": 75.5075198346573,
      "status": "Functional"
    },
    {
      "sn": 270,
      "district": "Kapurthala",
      "name": "PHC Kala Sanghia",
      "latitude": 31.2616977873608,
      "longitude": 75.4451868653978,
      "status": "Functional"
    },
    {
      "sn": 271,
      "district": "Kapurthala",
      "name": "CHC Tibba",
      "latitude": 31.3105650331134,
      "longitude": 75.2139365435618,
      "status": "Functional"
    },
    {
      "sn": 272,
      "district": "Kapurthala",
      "name": "CHC Fattu Dhinga",
      "latitude": 31.3737482000692,
      "longitude": 75.2257261070409,
      "status": "Functional"
    },
    {
      "sn": 273,
      "district": "Kapurthala",
      "name": "CHC Panchhat",
      "latitude": 31.3354778606504,
      "longitude": 75.8651256242357,
      "status": "Functional"
    },
    {
      "sn": 274,
      "district": "Kapurthala",
      "name": "CHC Begowal",
      "latitude": 31.6095893617508,
      "longitude": 75.5163400126098,
      "status": "Functional"
    },
    {
      "sn": 276,
      "district": "Kapurthala",
      "name": "PHC Dhilwan",
      "latitude": 31.51226,
      "longitude": 75.34484,
      "status": "Functional"
    },
    {
      "sn": 278,
      "district": "Kapurthala",
      "name": "UPHC Araika Mohalla",
      "latitude": 31.3786228048374,
      "longitude": 75.3728695244118,
      "status": "Functional"
    },
    {
      "sn": 279,
      "district": "Kapurthala",
      "name": "UPHC Hadiabad",
      "latitude": 31.2205944965675,
      "longitude": 75.7464032240791,
      "status": "Functional"
    },
    {
      "sn": 280,
      "district": "Ludhiana",
      "name": "Central Jail, Ludhiana",
      "latitude": 30.91663,
      "longitude": 75.90951,
      "status": "Functional"
    },
    {
      "sn": 281,
      "district": "Ludhiana",
      "name": "SDH Samrala",
      "latitude": 30.839851,
      "longitude": 76.186875,
      "status": "Functional"
    },
    {
      "sn": 282,
      "district": "Ludhiana",
      "name": "SDH Khanna",
      "latitude": 30.703232,
      "longitude": 76.223076,
      "status": "Functional"
    },
    {
      "sn": 283,
      "district": "Ludhiana",
      "name": "SDH Raikot",
      "latitude": 30.65,
      "longitude": 75.6,
      "status": "Functional"
    },
    {
      "sn": 284,
      "district": "Ludhiana",
      "name": "Drug Rehabilitation Centre, Jagraon, Ludhiana",
      "latitude": 30.797416,
      "longitude": 75.475386,
      "status": "Functional"
    },
    {
      "sn": 285,
      "district": "Ludhiana",
      "name": "CHC Gur Sar Sudhar",
      "latitude": 30.4628,
      "longitude": 75.385767,
      "status": "Functional"
    },
    {
      "sn": 286,
      "district": "Ludhiana",
      "name": "CHC Hathur",
      "latitude": 30.6007,
      "longitude": 75.4295,
      "status": "Functional"
    },
    {
      "sn": 287,
      "district": "Ludhiana",
      "name": "CHC Kum Kalan",
      "latitude": 30.89107,
      "longitude": 75.87729,
      "status": "Functional"
    },
    {
      "sn": 288,
      "district": "Ludhiana",
      "name": "CHC Machhiwara",
      "latitude": 30.9126912569558,
      "longitude": 76.1959770607821,
      "status": "Functional"
    },
    {
      "sn": 289,
      "district": "Ludhiana",
      "name": "CHC Dehlon",
      "latitude": 30.9004,
      "longitude": 75.8513,
      "status": "Functional"
    },
    {
      "sn": 290,
      "district": "Ludhiana",
      "name": "CHC Malaud",
      "latitude": 30.634831,
      "longitude": 75.937013,
      "status": "Functional"
    },
    {
      "sn": 291,
      "district": "Ludhiana",
      "name": "CHC Manupur",
      "latitude": 30.7553217760686,
      "longitude": 76.270553680797,
      "status": "Functional"
    },
    {
      "sn": 292,
      "district": "Ludhiana",
      "name": "CHC Pakhowal",
      "latitude": 30.714176,
      "longitude": 75.71333,
      "status": "Functional"
    },
    {
      "sn": 293,
      "district": "Ludhiana",
      "name": "CHC Payal",
      "latitude": 30.724362063744,
      "longitude": 76.0620392911403,
      "status": "Functional"
    },
    {
      "sn": 294,
      "district": "Ludhiana",
      "name": "CHC Sahnewal",
      "latitude": 30.840752062326,
      "longitude": 75.9794480818837,
      "status": "Functional"
    },
    {
      "sn": 295,
      "district": "Ludhiana",
      "name": "CHC Sidhwan Bet",
      "latitude": 30.9295,
      "longitude": 75.4723,
      "status": "Functional"
    },
    {
      "sn": 296,
      "district": "Ludhiana",
      "name": "DH Ludhiana",
      "latitude": 30.9065513481678,
      "longitude": 75.8597252721,
      "status": "Functional"
    },
    {
      "sn": 297,
      "district": "Ludhiana",
      "name": "PHC Rampur/Rampur Dhoraha",
      "latitude": 30.8187775893513,
      "longitude": 76.0502884075177,
      "status": "Functional"
    },
    {
      "sn": 298,
      "district": "Ludhiana",
      "name": "PHC Mandiala Kalan",
      "latitude": 30.896429463701,
      "longitude": 75.9312236309106,
      "status": "Non-Functional"
    },
    {
      "sn": 299,
      "district": "Ludhiana",
      "name": "PHC Katani Kalan",
      "latitude": 30.849131,
      "longitude": 76.081116,
      "status": "Functional"
    },
    {
      "sn": 300,
      "district": "Ludhiana",
      "name": "PHC Ghwadi",
      "latitude": 30.78282,
      "longitude": 75.89448,
      "status": "Functional"
    },
    {
      "sn": 301,
      "district": "Ludhiana",
      "name": "PHC Kalakh",
      "latitude": 30.7159230765087,
      "longitude": 75.8232095639723,
      "status": "Functional"
    },
    {
      "sn": 303,
      "district": "Ludhiana",
      "name": "PHC Talwandi Kalan",
      "latitude": 30.8511331750561,
      "longitude": 75.5912535795277,
      "status": "Functional"
    },
    {
      "sn": 304,
      "district": "Ludhiana",
      "name": "PHC Sabadi Kalan",
      "latitude": 30.8678,
      "longitude": 75.5844,
      "status": "Functional"
    },
    {
      "sn": 305,
      "district": "Ludhiana",
      "name": "PHC Mohi",
      "latitude": 30.804729,
      "longitude": 75.683273,
      "status": "Functional"
    },
    {
      "sn": 306,
      "district": "Ludhiana",
      "name": "PHC Bhanohar",
      "latitude": 30.8488987,
      "longitude": 75.7062077,
      "status": "Non-Functional"
    },
    {
      "sn": 307,
      "district": "Ludhiana",
      "name": "PHC Mullanpur",
      "latitude": 30.8464119121119,
      "longitude": 75.6741873595902,
      "status": "Functional"
    },
    {
      "sn": 308,
      "district": "Ludhiana",
      "name": "PHC Ladowal",
      "latitude": 30.9794,
      "longitude": 75.7926,
      "status": "Functional"
    },
    {
      "sn": 309,
      "district": "Ludhiana",
      "name": "PHC Chowkiman",
      "latitude": 30.8133349381548,
      "longitude": 75.5634617616478,
      "status": "Functional"
    },
    {
      "sn": 310,
      "district": "Ludhiana",
      "name": "PHC Mehdoodan",
      "latitude": 30.80648,
      "longitude": 76.09553,
      "status": "Functional"
    },
    {
      "sn": 311,
      "district": "Ludhiana",
      "name": "PHC Manuke",
      "latitude": 30.67142,
      "longitude": 75.45901,
      "status": "Functional"
    },
    {
      "sn": 312,
      "district": "Ludhiana",
      "name": "PHC KAUNKEKALAN",
      "latitude": 30.7759887976237,
      "longitude": 75.3559058547511,
      "status": "Unknown"
    },
    {
      "sn": 313,
      "district": "Ludhiana",
      "name": "UPHC Jagraon",
      "latitude": 30.8123060792036,
      "longitude": 75.4799339175281,
      "status": "Non-Functional"
    },
    {
      "sn": 314,
      "district": "Ludhiana",
      "name": "UPHC Lady Hospital",
      "latitude": 30.7075744709859,
      "longitude": 76.215664203365,
      "status": "Non-Functional"
    },
    {
      "sn": 315,
      "district": "Ludhiana",
      "name": "UPHC MT Khanna",
      "latitude": 30.704135682274,
      "longitude": 76.2300069715101,
      "status": "Non-Functional"
    },
    {
      "sn": 316,
      "district": "Ludhiana",
      "name": "UPHC Abdullapur Basti",
      "latitude": 30.8963,
      "longitude": 75.85235,
      "status": "Functional"
    },
    {
      "sn": 317,
      "district": "Ludhiana",
      "name": "UPHC Dholewal",
      "latitude": 30.89191,
      "longitude": 75.86924,
      "status": "Functional"
    },
    {
      "sn": 318,
      "district": "Ludhiana",
      "name": "UPHC Pratap Nagar Tibba Road",
      "latitude": 30.9501240806902,
      "longitude": 75.8494457974565,
      "status": "Non-Functional"
    },
    {
      "sn": 319,
      "district": "Ludhiana",
      "name": "UPHC Sabzi Mandi",
      "latitude": 30.94455,
      "longitude": 75.85035,
      "status": "Functional"
    },
    {
      "sn": 320,
      "district": "Ludhiana",
      "name": "UPHC Salem Tabri",
      "latitude": 30.933508,
      "longitude": 75.83856,
      "status": "Functional"
    },
    {
      "sn": 322,
      "district": "Ludhiana",
      "name": "UPHC Bhagwan Nagar",
      "latitude": 30.88915,
      "longitude": 75.87451,
      "status": "Functional"
    },
    {
      "sn": 323,
      "district": "Ludhiana",
      "name": "UPHC Dugri",
      "latitude": 30.8724,
      "longitude": 75.8454,
      "status": "Functional"
    },
    {
      "sn": 325,
      "district": "Ludhiana",
      "name": "UPHC Janta Nagar",
      "latitude": 30.87912,
      "longitude": 75.865805,
      "status": "Non-Functional"
    },
    {
      "sn": 326,
      "district": "Ludhiana",
      "name": "UPHC Model Town",
      "latitude": 30.8077,
      "longitude": 75.6756,
      "status": "Functional"
    },
    {
      "sn": 327,
      "district": "Ludhiana",
      "name": "UPHC Muradpura",
      "latitude": 30.894383,
      "longitude": 75.8554402,
      "status": "Functional"
    },
    {
      "sn": 328,
      "district": "Ludhiana",
      "name": "UPHC Sunet",
      "latitude": 30.88332,
      "longitude": 75.79813,
      "status": "Non-Functional"
    },
    {
      "sn": 329,
      "district": "Ludhiana",
      "name": "UPHC Subhash Nagar Chandarlok Colony",
      "latitude": 30.934948,
      "longitude": 75.883985,
      "status": "Functional"
    },
    {
      "sn": 330,
      "district": "Ludhiana",
      "name": "UPHC In existing Civil Surgeon Complex",
      "latitude": 30.8662,
      "longitude": 75.8599,
      "status": "Functional"
    },
    {
      "sn": 331,
      "district": "Ludhiana",
      "name": "UPHC In samaj Bhalai Complex Simlapuri",
      "latitude": 30.8664677897145,
      "longitude": 75.8598704198623,
      "status": "Functional"
    },
    {
      "sn": 332,
      "district": "Ludhiana",
      "name": "UPHC New CHC at Gyaspura (shifted from punjab Agro Complex near Jalandhar Byepass)",
      "latitude": 30.8594833003844,
      "longitude": 75.8910038459023,
      "status": "Non-Functional"
    },
    {
      "sn": 333,
      "district": "Ludhiana",
      "name": "UPHC Jawadhi Ludhiana",
      "latitude": 30.8833,
      "longitude": 75.83,
      "status": "Functional"
    },
    {
      "sn": 334,
      "district": "Ludhiana",
      "name": "UCHC Vardhman",
      "latitude": 30.9112437,
      "longitude": 75.8910321,
      "status": "Functional"
    },
    {
      "sn": 335,
      "district": "Ludhiana",
      "name": "Borstal District Jail Ludhiana",
      "latitude": 31.198668,
      "longitude": 76.154465,
      "status": "Functional"
    },
    {
      "sn": 336,
      "district": "Mansa",
      "name": "Drug Rehabilitation Centre, Thuthian Wali Road, Mansa",
      "latitude": 30.00276,
      "longitude": 75.23218,
      "status": "Functional"
    },
    {
      "sn": 337,
      "district": "Mansa",
      "name": "SDH Sardulgarh",
      "latitude": 29.691221,
      "longitude": 75.237988,
      "status": "Functional"
    },
    {
      "sn": 338,
      "district": "Mansa",
      "name": "SDH Budhlada",
      "latitude": 29.925424,
      "longitude": 75.558022,
      "status": "Functional"
    },
    {
      "sn": 339,
      "district": "Mansa",
      "name": "CHC Bhikhi",
      "latitude": 30.058009,
      "longitude": 75.538017,
      "status": "Functional"
    },
    {
      "sn": 340,
      "district": "Mansa",
      "name": "CHC Bareta",
      "latitude": 29.861559,
      "longitude": 75.69495,
      "status": "Functional"
    },
    {
      "sn": 341,
      "district": "Mansa",
      "name": "CHC Junir",
      "latitude": 29.806712,
      "longitude": 75.345212,
      "status": "Functional"
    },
    {
      "sn": 342,
      "district": "Mansa",
      "name": "CHC Khiala Kalan",
      "latitude": 30.040152,
      "longitude": 75.431743,
      "status": "Functional"
    },
    {
      "sn": 343,
      "district": "Mansa",
      "name": "District Jail Mansa",
      "latitude": 30.065678,
      "longitude": 75.404854,
      "status": "Functional"
    },
    {
      "sn": 344,
      "district": "Mansa",
      "name": "PHC Nangal Kalan",
      "latitude": 29.925947,
      "longitude": 75.391614,
      "status": "Functional"
    },
    {
      "sn": 345,
      "district": "Mansa",
      "name": "PHC Dhaipai",
      "latitude": 30.762092,
      "longitude": 75.714986,
      "status": "Functional"
    },
    {
      "sn": 346,
      "district": "Mansa",
      "name": "PHC Joga",
      "latitude": 30.159352,
      "longitude": 75.420991,
      "status": "Functional"
    },
    {
      "sn": 348,
      "district": "Mansa",
      "name": "PHC Boha",
      "latitude": 29.830445,
      "longitude": 75.526362,
      "status": "Functional"
    },
    {
      "sn": 349,
      "district": "Mansa",
      "name": "PHC Birke Kalan",
      "latitude": 29.9950718437193,
      "longitude": 75.5922118972564,
      "status": "Non-Functional"
    },
    {
      "sn": 350,
      "district": "Mansa",
      "name": "PHC Kularian",
      "latitude": 29.802581,
      "longitude": 75.681039,
      "status": "Functional"
    },
    {
      "sn": 351,
      "district": "Moga",
      "name": "DDRC, Village Janer, Moga",
      "latitude": 29.9856017827973,
      "longitude": 75.4027969814796,
      "status": "Functional"
    },
    {
      "sn": 352,
      "district": "Moga",
      "name": "CHC Dhudike",
      "latitude": 30.775014,
      "longitude": 75.3527449,
      "status": "Functional"
    },
    {
      "sn": 353,
      "district": "Moga",
      "name": "CHC Nihal Singh Wala",
      "latitude": 30.5930285,
      "longitude": 75.2791739,
      "status": "Functional"
    },
    {
      "sn": 354,
      "district": "Moga",
      "name": "CHC Kot Isse Khan",
      "latitude": 30.9439332,
      "longitude": 75.14245,
      "status": "Functional"
    },
    {
      "sn": 355,
      "district": "Moga",
      "name": "CHC Bagha Purana",
      "latitude": 30.6884,
      "longitude": 75.0853,
      "status": "Functional"
    },
    {
      "sn": 356,
      "district": "Moga",
      "name": "CHC Daroli Bhai",
      "latitude": 30.807403,
      "longitude": 75.0457181,
      "status": "Functional"
    },
    {
      "sn": 357,
      "district": "Moga",
      "name": "CHC Badhani Kalan",
      "latitude": 30.68715,
      "longitude": 75.3063,
      "status": "Functional"
    },
    {
      "sn": 358,
      "district": "Moga",
      "name": "PHC Khokri Kalan",
      "latitude": 30.842055,
      "longitude": 75.331786,
      "status": "Functional"
    },
    {
      "sn": 359,
      "district": "Moga",
      "name": "PHC Patto Hira Singh",
      "latitude": 30.5937,
      "longitude": 75.2392,
      "status": "Functional"
    },
    {
      "sn": 360,
      "district": "Moga",
      "name": "PHC PHC Fatehgarh Panj Toor",
      "latitude": 31.053486,
      "longitude": 75.112793,
      "status": "Functional"
    },
    {
      "sn": 361,
      "district": "Moga",
      "name": "PHC Jalalabad East",
      "latitude": 30.605830450504,
      "longitude": 74.2559921998268,
      "status": "Functional"
    },
    {
      "sn": 362,
      "district": "Moga",
      "name": "PHC Kishan Pur Kalan",
      "latitude": 30.9282346540147,
      "longitude": 75.3501299040525,
      "status": "Functional"
    },
    {
      "sn": 363,
      "district": "Moga",
      "name": "PHC Thathi Bhai",
      "latitude": 30.3583021,
      "longitude": 75.6469824,
      "status": "Functional"
    },
    {
      "sn": 364,
      "district": "Moga",
      "name": "PHC Daulat Pur Niwana",
      "latitude": 30.876884,
      "longitude": 75.02555,
      "status": "Functional"
    },
    {
      "sn": 365,
      "district": "Moga",
      "name": "PHC Chand Niwana",
      "latitude": 30.75585,
      "longitude": 75.0873956,
      "status": "Functional"
    },
    {
      "sn": 366,
      "district": "Moga",
      "name": "UPHC Bagiana Basti",
      "latitude": 30.809231,
      "longitude": 75.156982,
      "status": "Functional"
    },
    {
      "sn": 367,
      "district": "Moga",
      "name": "UPHC Duneke",
      "latitude": 30.8267363,
      "longitude": 75.1435936,
      "status": "Functional"
    },
    {
      "sn": 368,
      "district": "Moga",
      "name": "CH Moga",
      "latitude": 30.811335,
      "longitude": 75.169579,
      "status": "Functional"
    },
    {
      "sn": 369,
      "district": "Muktsar",
      "name": "Drug Rehabilitation Centre, Muktsar",
      "latitude": 30.46277,
      "longitude": 74.53521,
      "status": "Functional"
    },
    {
      "sn": 370,
      "district": "Muktsar",
      "name": "SDH Badal",
      "latitude": 30.0761,
      "longitude": 74.6664,
      "status": "Functional"
    },
    {
      "sn": 371,
      "district": "Muktsar",
      "name": "Village Theri, SDH Malout",
      "latitude": 30.18677,
      "longitude": 74.4956,
      "status": "Functional"
    },
    {
      "sn": 372,
      "district": "Muktsar",
      "name": "SDH Gidderbaha",
      "latitude": 30.216209,
      "longitude": 74.646911,
      "status": "Functional"
    },
    {
      "sn": 373,
      "district": "Muktsar",
      "name": "CHC Sarawa Bhodla",
      "latitude": 30.3,
      "longitude": 74.43,
      "status": "Functional"
    },
    {
      "sn": 374,
      "district": "Muktsar",
      "name": "CHC Chak Sherewala",
      "latitude": 30.3848,
      "longitude": 74.3793,
      "status": "Functional"
    },
    {
      "sn": 375,
      "district": "Muktsar",
      "name": "CHC Bariwala",
      "latitude": 30.5379,
      "longitude": 74.6525,
      "status": "Functional"
    },
    {
      "sn": 376,
      "district": "Muktsar",
      "name": "CHC Doda",
      "latitude": 30.3832162267065,
      "longitude": 74.631175729747,
      "status": "Functional"
    },
    {
      "sn": 377,
      "district": "Muktsar",
      "name": "CHC Lambi",
      "latitude": 30.0578,
      "longitude": 74.6078,
      "status": "Functional"
    },
    {
      "sn": 378,
      "district": "Muktsar",
      "name": "District Jail, Muktsar",
      "latitude": 30.4798,
      "longitude": 74.5325,
      "status": "Functional"
    },
    {
      "sn": 379,
      "district": "Muktsar",
      "name": "PHC Kanian Wali",
      "latitude": 30.6968,
      "longitude": 74.4811,
      "status": "Functional"
    },
    {
      "sn": 380,
      "district": "Muktsar",
      "name": "PHC Balam Garh",
      "latitude": 30.3388,
      "longitude": 74.3206,
      "status": "Functional"
    },
    {
      "sn": 381,
      "district": "Muktsar",
      "name": "PHC HariKe Kalan",
      "latitude": 30.4806,
      "longitude": 74.7074,
      "status": "Functional"
    },
    {
      "sn": 382,
      "district": "Muktsar",
      "name": "PHC Singhe Wala",
      "latitude": 30.02127,
      "longitude": 74.69127,
      "status": "Functional"
    },
    {
      "sn": 383,
      "district": "Muktsar",
      "name": "PHC Kandu Khera",
      "latitude": 29.9482,
      "longitude": 74.5038,
      "status": "Functional"
    },
    {
      "sn": 384,
      "district": "Muktsar",
      "name": "PHC Mahuana",
      "latitude": 29.988,
      "longitude": 75.379,
      "status": "Functional"
    },
    {
      "sn": 385,
      "district": "Muktsar",
      "name": "PHC Alamwala",
      "latitude": 30.2677,
      "longitude": 74.4218,
      "status": "Functional"
    },
    {
      "sn": 386,
      "district": "Muktsar",
      "name": "UPHC 1 Malout",
      "latitude": 30.19318,
      "longitude": 74.50679,
      "status": "Functional"
    },
    {
      "sn": 387,
      "district": "Muktsar",
      "name": "UPHC 1 Muktsar",
      "latitude": 30.47781,
      "longitude": 74.52066,
      "status": "Functional"
    },
    {
      "sn": 388,
      "district": "Pathankot",
      "name": "DH Pathankot",
      "latitude": 32.2822,
      "longitude": 75.6533,
      "status": "Functional"
    },
    {
      "sn": 389,
      "district": "Pathankot",
      "name": "CHC Narot Jaimal Singh",
      "latitude": 32.2944,
      "longitude": 75.457,
      "status": "Functional"
    },
    {
      "sn": 390,
      "district": "Pathankot",
      "name": "CHC Gharota",
      "latitude": 32.1486572365132,
      "longitude": 75.5755933512596,
      "status": "Functional"
    },
    {
      "sn": 391,
      "district": "Pathankot",
      "name": "CHC Sujanpur",
      "latitude": 32.3126617840757,
      "longitude": 75.6083459705065,
      "status": "Functional"
    },
    {
      "sn": 392,
      "district": "Pathankot",
      "name": "CHC Bungal Badhani",
      "latitude": 32.3382461167527,
      "longitude": 75.768194303773,
      "status": "Functional"
    },
    {
      "sn": 394,
      "district": "Pathankot",
      "name": "PHC Dunera",
      "latitude": 32.4450139886989,
      "longitude": 75.8866426348742,
      "status": "Functional"
    },
    {
      "sn": 395,
      "district": "Pathankot",
      "name": "PHC Bamyal",
      "latitude": 32.2921,
      "longitude": 75.3787,
      "status": "Functional"
    },
    {
      "sn": 397,
      "district": "Pathankot",
      "name": "UPHC Pathankot",
      "latitude": 32.2562350776025,
      "longitude": 75.6508147716728,
      "status": "Functional"
    },
    {
      "sn": 398,
      "district": "Patiala",
      "name": "DDRC, Near Khalsa College, Patiala",
      "latitude": 30.3358,
      "longitude": 76.3774,
      "status": "Functional"
    },
    {
      "sn": 399,
      "district": "Patiala",
      "name": "Central Jail, Patiala",
      "latitude": 30.34,
      "longitude": 76.38,
      "status": "Functional"
    },
    {
      "sn": 400,
      "district": "Patiala",
      "name": "SDH Rajpura",
      "latitude": 30.483997,
      "longitude": 76.593948,
      "status": "Functional"
    },
    {
      "sn": 401,
      "district": "Patiala",
      "name": "SDH Nabha",
      "latitude": 30.372458,
      "longitude": 76.145979,
      "status": "Functional"
    },
    {
      "sn": 402,
      "district": "Patiala",
      "name": "SDH Samana",
      "latitude": 30.1541,
      "longitude": 76.1977,
      "status": "Functional"
    },
    {
      "sn": 403,
      "district": "Patiala",
      "name": "CHC Bhadson",
      "latitude": 30.48655,
      "longitude": 76.17866,
      "status": "Functional"
    },
    {
      "sn": 404,
      "district": "Patiala",
      "name": "CHC Dudhan Sadhan",
      "latitude": 30.15629,
      "longitude": 76.52739,
      "status": "Functional"
    },
    {
      "sn": 405,
      "district": "Patiala",
      "name": "CHC Ghanaur",
      "latitude": 30.3276,
      "longitude": 76.6062,
      "status": "Functional"
    },
    {
      "sn": 406,
      "district": "Patiala",
      "name": "CHC Kalo Majra",
      "latitude": 30.5214,
      "longitude": 76.6709,
      "status": "Functional"
    },
    {
      "sn": 407,
      "district": "Patiala",
      "name": "CHC Model Town",
      "latitude": 30.341911,
      "longitude": 76.366288,
      "status": "Functional"
    },
    {
      "sn": 408,
      "district": "Patiala",
      "name": "CHC Tripri",
      "latitude": 30.3571944018901,
      "longitude": 76.3899015949185,
      "status": "Functional"
    },
    {
      "sn": 409,
      "district": "Patiala",
      "name": "CHC Badshahpur",
      "latitude": 30.0042,
      "longitude": 76.1705,
      "status": "Functional"
    },
    {
      "sn": 410,
      "district": "Patiala",
      "name": "CHC Patran",
      "latitude": 29.941,
      "longitude": 76.0529,
      "status": "Functional"
    },
    {
      "sn": 411,
      "district": "Patiala",
      "name": "CHC Shurtrana",
      "latitude": 29.9115217,
      "longitude": 76.1168565,
      "status": "Functional"
    },
    {
      "sn": 412,
      "district": "Patiala",
      "name": "New District Jail Nabha Bhawanigarh Road",
      "latitude": 30.372458,
      "longitude": 76.145979,
      "status": "Functional"
    },
    {
      "sn": 413,
      "district": "Patiala",
      "name": "PHC Balbera",
      "latitude": 30.1611,
      "longitude": 76.363,
      "status": "Functional"
    },
    {
      "sn": 414,
      "district": "Patiala",
      "name": "PHC Gharaham",
      "latitude": 30.120808,
      "longitude": 76.480964,
      "status": "Functional"
    },
    {
      "sn": 415,
      "district": "Patiala",
      "name": "CHC Tohra",
      "latitude": 30.5176,
      "longitude": 76.3189,
      "status": "Functional"
    },
    {
      "sn": 416,
      "district": "Patiala",
      "name": "PHC Sojja",
      "latitude": 30.33481,
      "longitude": 76.2359,
      "status": "Functional"
    },
    {
      "sn": 417,
      "district": "Patiala",
      "name": "PHC Ajnoda",
      "latitude": 30.4217,
      "longitude": 76.256,
      "status": "Functional"
    },
    {
      "sn": 418,
      "district": "Patiala",
      "name": "PHC Gajewas",
      "latitude": 30.2011,
      "longitude": 76.1074,
      "status": "Functional"
    },
    {
      "sn": 419,
      "district": "Patiala",
      "name": "PHC Aarno",
      "latitude": 29.8585409730777,
      "longitude": 76.2117079469189,
      "status": "Functional"
    },
    {
      "sn": 420,
      "district": "Patiala",
      "name": "PHC Kauli",
      "latitude": 30.410493,
      "longitude": 76.517041,
      "status": "Functional"
    },
    {
      "sn": 421,
      "district": "Patiala",
      "name": "PHC Gajju Majra",
      "latitude": 30.36117,
      "longitude": 76.32587,
      "status": "Functional"
    },
    {
      "sn": 422,
      "district": "Patiala",
      "name": "PHC Harpalpur",
      "latitude": 30.3967,
      "longitude": 76.59671,
      "status": "Functional"
    },
    {
      "sn": 423,
      "district": "Patiala",
      "name": "UPHC Nabha",
      "latitude": 30.373674,
      "longitude": 76.145187,
      "status": "Functional"
    },
    {
      "sn": 424,
      "district": "Patiala",
      "name": "UPHC Arya Samaj",
      "latitude": 30.333606999318,
      "longitude": 76.4034919110102,
      "status": "Functional"
    },
    {
      "sn": 425,
      "district": "Patiala",
      "name": "UPHC City Branch",
      "latitude": 30.3240616,
      "longitude": 76.4057996,
      "status": "Functional"
    },
    {
      "sn": 426,
      "district": "Patiala",
      "name": "UPHC Sullar",
      "latitude": 30.303316,
      "longitude": 76.392197,
      "status": "Functional"
    },
    {
      "sn": 427,
      "district": "Patiala",
      "name": "UPHC Urban Estate alias Jujhar Nagar",
      "latitude": 30.344033,
      "longitude": 76.422903,
      "status": "Functional"
    },
    {
      "sn": 428,
      "district": "Patiala",
      "name": "UPHC Rajpura 2",
      "latitude": 30.4877429,
      "longitude": 76.5943388,
      "status": "Functional"
    },
    {
      "sn": 429,
      "district": "Patiala",
      "name": "M.K.H. Patiala",
      "latitude": 30.2012,
      "longitude": 76.2356,
      "status": "Functional"
    },
    {
      "sn": 430,
      "district": "Rupnagar",
      "name": "DH Rupnagar",
      "latitude": 30.996,
      "longitude": 76.5251,
      "status": "Functional"
    },
    {
      "sn": 431,
      "district": "Rupnagar",
      "name": "SDH Anandpur Sahib",
      "latitude": 31.234961,
      "longitude": 76.498808,
      "status": "Functional"
    },
    {
      "sn": 432,
      "district": "Rupnagar",
      "name": "CHC Bharatgarh",
      "latitude": 31.096012,
      "longitude": 76.615395,
      "status": "Functional"
    },
    {
      "sn": 433,
      "district": "Rupnagar",
      "name": "CHC Chamkaur Sahib",
      "latitude": 30.8981,
      "longitude": 76.4128,
      "status": "Functional"
    },
    {
      "sn": 434,
      "district": "Rupnagar",
      "name": "CHC Morinda",
      "latitude": 30.7912,
      "longitude": 76.5025,
      "status": "Functional"
    },
    {
      "sn": 435,
      "district": "Rupnagar",
      "name": "CHC Nurpur Bedi",
      "latitude": 31.12498,
      "longitude": 76.43505,
      "status": "Functional"
    },
    {
      "sn": 436,
      "district": "Rupnagar",
      "name": "CH Nangal",
      "latitude": 31.3832,
      "longitude": 76.3766,
      "status": "Functional"
    },
    {
      "sn": 437,
      "district": "Rupnagar",
      "name": "District Jail, Rupnagar",
      "latitude": 30.9536,
      "longitude": 76.5058,
      "status": "Functional"
    },
    {
      "sn": 438,
      "district": "Rupnagar",
      "name": "PHC Purkhali",
      "latitude": 30.931418,
      "longitude": 76.634877,
      "status": "Functional"
    },
    {
      "sn": 439,
      "district": "Rupnagar",
      "name": "PHC Kiratpur Sahib",
      "latitude": 31.1834,
      "longitude": 76.5693,
      "status": "Functional"
    },
    {
      "sn": 440,
      "district": "Rupnagar",
      "name": "PHC Sahjowal",
      "latitude": 31.0391,
      "longitude": 76.6267,
      "status": "Functional"
    },
    {
      "sn": 441,
      "district": "Rupnagar",
      "name": "UPHC Kotla Nihang",
      "latitude": 30.9518,
      "longitude": 76.538,
      "status": "Functional"
    },
    {
      "sn": 442,
      "district": "Sahibzada Ajit Singh Nagar",
      "name": "Drug Rehabilitation Centre, Sector-66, SAS Nagar",
      "latitude": 30.675696,
      "longitude": 76.733096,
      "status": "Functional"
    },
    {
      "sn": 443,
      "district": "Sahibzada Ajit Singh Nagar",
      "name": "SDH Kharar",
      "latitude": 30.74,
      "longitude": 76.65,
      "status": "Functional"
    },
    {
      "sn": 444,
      "district": "Sahibzada Ajit Singh Nagar",
      "name": "SDH Dera Bassi",
      "latitude": 30.5848,
      "longitude": 76.845,
      "status": "Functional"
    },
    {
      "sn": 445,
      "district": "Sahibzada Ajit Singh Nagar",
      "name": "CHC Dhakoli",
      "latitude": 30,
      "longitude": 76.65,
      "status": "Functional"
    },
    {
      "sn": 446,
      "district": "Sahibzada Ajit Singh Nagar",
      "name": "CHC Lalru",
      "latitude": 30.491731,
      "longitude": 76.803112,
      "status": "Functional"
    },
    {
      "sn": 447,
      "district": "Sahibzada Ajit Singh Nagar",
      "name": "CHC Banur",
      "latitude": 30.33,
      "longitude": 76.43,
      "status": "Functional"
    },
    {
      "sn": 448,
      "district": "Sahibzada Ajit Singh Nagar",
      "name": "CHC Antala",
      "latitude": 30.39,
      "longitude": 76.91,
      "status": "Functional"
    },
    {
      "sn": 449,
      "district": "Sahibzada Ajit Singh Nagar",
      "name": "CHC Kurali",
      "latitude": 30.8309927,
      "longitude": 76.5748309,
      "status": "Functional"
    },
    {
      "sn": 450,
      "district": "Sahibzada Ajit Singh Nagar",
      "name": "PHC Basauli",
      "latitude": 30.4404,
      "longitude": 76.8663,
      "status": "Non-Functional"
    },
    {
      "sn": 451,
      "district": "Sahibzada Ajit Singh Nagar",
      "name": "PHC Gharuan",
      "latitude": 30.776168,
      "longitude": 76.558198,
      "status": "Functional"
    },
    {
      "sn": 452,
      "district": "Sahibzada Ajit Singh Nagar",
      "name": "PHC Majat",
      "latitude": 30.9413,
      "longitude": 76.6748,
      "status": "Functional"
    },
    {
      "sn": 453,
      "district": "Sahibzada Ajit Singh Nagar",
      "name": "PHC Mullanpur",
      "latitude": 30.593684,
      "longitude": 76.962879,
      "status": "Functional"
    },
    {
      "sn": 454,
      "district": "Sahibzada Ajit Singh Nagar",
      "name": "PHC Chandon",
      "latitude": 30.775738,
      "longitude": 76.665319,
      "status": "Non-Functional"
    },
    {
      "sn": 455,
      "district": "Sahibzada Ajit Singh Nagar",
      "name": "PHC Boothgarh",
      "latitude": 30.83443,
      "longitude": 76.686937,
      "status": "Functional"
    },
    {
      "sn": 456,
      "district": "Sahibzada Ajit Singh Nagar",
      "name": "PHC Palheri",
      "latitude": 30.78918,
      "longitude": 76.69281,
      "status": "Functional"
    },
    {
      "sn": 457,
      "district": "Sahibzada Ajit Singh Nagar",
      "name": "PHC Khijrabad",
      "latitude": 30.875083,
      "longitude": 76.654997,
      "status": "Functional"
    },
    {
      "sn": 458,
      "district": "Sahibzada Ajit Singh Nagar",
      "name": "UPHC Baltana",
      "latitude": 30.36566,
      "longitude": 76.52436,
      "status": "Functional"
    },
    {
      "sn": 459,
      "district": "Sahibzada Ajit Singh Nagar",
      "name": "UPHC Preet Colony",
      "latitude": 30.65058,
      "longitude": 76.825287,
      "status": "Non-Functional"
    },
    {
      "sn": 460,
      "district": "Sahibzada Ajit Singh Nagar",
      "name": "UPHC Mundi Kharar",
      "latitude": 31.00369,
      "longitude": 76.54277,
      "status": "Functional"
    },
    {
      "sn": 461,
      "district": "Sahibzada Ajit Singh Nagar",
      "name": "UPHC Nayagaon",
      "latitude": 30.7738620007025,
      "longitude": 76.7932576402802,
      "status": "Functional"
    },
    {
      "sn": 462,
      "district": "Sahibzada Ajit Singh Nagar",
      "name": "UPHC Phase 1",
      "latitude": 30.4351,
      "longitude": 76.439,
      "status": "Functional"
    },
    {
      "sn": 463,
      "district": "Sahibzada Ajit Singh Nagar",
      "name": "UPHC Phase 11",
      "latitude": 30.4045,
      "longitude": 76.4451,
      "status": "Functional"
    },
    {
      "sn": 464,
      "district": "Sahibzada Ajit Singh Nagar",
      "name": "UPHC Phase VII",
      "latitude": 30.70593,
      "longitude": 76.7264577,
      "status": "Functional"
    },
    {
      "sn": 465,
      "district": "Sahibzada Ajit Singh Nagar",
      "name": "DH Mohali",
      "latitude": 30.71805,
      "longitude": 76.729233,
      "status": "Functional"
    },
    {
      "sn": 466,
      "district": "Sangrur",
      "name": "Drug Rehabilitation Centre, Village Ghabdah, Sangrur",
      "latitude": 30.257634,
      "longitude": 75.9580833,
      "status": "Functional"
    },
    {
      "sn": 467,
      "district": "Sangrur",
      "name": "SDH Dhuri",
      "latitude": 30.373501,
      "longitude": 75.863197,
      "status": "Functional"
    },
    {
      "sn": 468,
      "district": "Sangrur",
      "name": "SDH Malerkotla",
      "latitude": 30.5198017,
      "longitude": 75.8763359,
      "status": "Functional"
    },
    {
      "sn": 469,
      "district": "Sangrur",
      "name": "SDH Sunam",
      "latitude": 30.1306,
      "longitude": 75.8014,
      "status": "Functional"
    },
    {
      "sn": 470,
      "district": "Sangrur",
      "name": "SDH Moonak",
      "latitude": 29.8225,
      "longitude": 75.8885,
      "status": "Functional"
    },
    {
      "sn": 471,
      "district": "Sangrur",
      "name": "CHC Amargarh",
      "latitude": 30.4633362,
      "longitude": 76.0127534,
      "status": "Functional"
    },
    {
      "sn": 472,
      "district": "Sangrur",
      "name": "CHC Bhawanigarh",
      "latitude": 30.2614,
      "longitude": 76.0333,
      "status": "Functional"
    },
    {
      "sn": 473,
      "district": "Sangrur",
      "name": "CHC Ahmadgarh",
      "latitude": 30.6795912,
      "longitude": 75.826819,
      "status": "Functional"
    },
    {
      "sn": 474,
      "district": "Sangrur",
      "name": "CHC Kauhrian",
      "latitude": 29.9921,
      "longitude": 75.9144,
      "status": "Functional"
    },
    {
      "sn": 475,
      "district": "Sangrur",
      "name": "CHC Dirba",
      "latitude": 30.0684,
      "longitude": 75.9861,
      "status": "Functional"
    },
    {
      "sn": 476,
      "district": "Sangrur",
      "name": "CHC Longowal",
      "latitude": 30.2001,
      "longitude": 75.6755,
      "status": "Functional"
    },
    {
      "sn": 477,
      "district": "Sangrur",
      "name": "CHC Lehargaga",
      "latitude": 29.9354,
      "longitude": 75.8106,
      "status": "Functional"
    },
    {
      "sn": 478,
      "district": "Sangrur",
      "name": "CHC Sherpur",
      "latitude": 31.0444,
      "longitude": 75.5946,
      "status": "Functional"
    },
    {
      "sn": 479,
      "district": "Sangrur",
      "name": "DH Sangrur",
      "latitude": 30.252,
      "longitude": 75.8357,
      "status": "Functional"
    },
    {
      "sn": 480,
      "district": "Sangrur",
      "name": "DISTRICT JAIL SANGRUR",
      "latitude": 30.2476,
      "longitude": 75.8248,
      "status": "Functional"
    },
    {
      "sn": 481,
      "district": "Sangrur",
      "name": "CHC Maniana",
      "latitude": 29.7473,
      "longitude": 75.9238,
      "status": "Functional"
    },
    {
      "sn": 482,
      "district": "Sangrur",
      "name": "PHC Mandvi",
      "latitude": 29.8089,
      "longitude": 75.9884,
      "status": "Functional"
    },
    {
      "sn": 483,
      "district": "Sangrur",
      "name": "PHC Shadi Heri",
      "latitude": 29.9569,
      "longitude": 75.9681,
      "status": "Functional"
    },
    {
      "sn": 484,
      "district": "Sangrur",
      "name": "PHC Fatehgarh Panj Garian",
      "latitude": 30.5227,
      "longitude": 75.7052,
      "status": "Functional"
    },
    {
      "sn": 485,
      "district": "Sangrur",
      "name": "UPHC Lal Bazar Malerkotla",
      "latitude": 30.5324491,
      "longitude": 75.8827206,
      "status": "Functional"
    },
    {
      "sn": 486,
      "district": "Sangrur",
      "name": "UPHC Qilla Rehmat Garh",
      "latitude": 30.5328748,
      "longitude": 75.8938118,
      "status": "Functional"
    },
    {
      "sn": 487,
      "district": "Sangrur",
      "name": "UPHC 1 Dhuri",
      "latitude": 30.3693,
      "longitude": 75.8607,
      "status": "Functional"
    },
    {
      "sn": 488,
      "district": "Sangrur",
      "name": "UPHC 1 Sangrur",
      "latitude": 30.2299,
      "longitude": 75.8258,
      "status": "Functional"
    },
    {
      "sn": 489,
      "district": "Sangrur",
      "name": "UPHC 1 Sunam",
      "latitude": 30.1306,
      "longitude": 75.81269,
      "status": "Functional"
    },
    {
      "sn": 490,
      "district": "Sangrur",
      "name": "PHC Kup Kalan",
      "latitude": 30.6164856,
      "longitude": 75.8796585,
      "status": "Functional"
    },
    {
      "sn": 491,
      "district": "Sangrur",
      "name": "PHC Sant Attar Singh RH Cheema",
      "latitude": 30.0939,
      "longitude": 75.6855,
      "status": "Functional"
    },
    {
      "sn": 492,
      "district": "Shaheed Bhagat Singh Nagar",
      "name": "Drug Rehabilitation Centre, Old DH, Nawanshahr",
      "latitude": 31.116245,
      "longitude": 76.155567,
      "status": "Functional"
    },
    {
      "sn": 493,
      "district": "Shaheed Bhagat Singh Nagar",
      "name": "SDH Balachaur",
      "latitude": 31.076006,
      "longitude": 76.29473,
      "status": "Functional"
    },
    {
      "sn": 494,
      "district": "Shaheed Bhagat Singh Nagar",
      "name": "CHC Rahon",
      "latitude": 31.061666,
      "longitude": 76.116658,
      "status": "Functional"
    },
    {
      "sn": 495,
      "district": "Shaheed Bhagat Singh Nagar",
      "name": "CHC Banga",
      "latitude": 31.184412,
      "longitude": 75.9958,
      "status": "Functional"
    },
    {
      "sn": 496,
      "district": "Shaheed Bhagat Singh Nagar",
      "name": "CHC Mukandpur",
      "latitude": 31.126351,
      "longitude": 75.948515,
      "status": "Functional"
    },
    {
      "sn": 497,
      "district": "Shaheed Bhagat Singh Nagar",
      "name": "CHC Saroya",
      "latitude": 31.180004,
      "longitude": 76.235161,
      "status": "Functional"
    },
    {
      "sn": 498,
      "district": "Shaheed Bhagat Singh Nagar",
      "name": "PHC Kathgarh",
      "latitude": 31.042169,
      "longitude": 76.376976,
      "status": "Functional"
    },
    {
      "sn": 500,
      "district": "Shaheed Bhagat Singh Nagar",
      "name": "PHC Aur",
      "latitude": 31.06913,
      "longitude": 76.000803,
      "status": "Functional"
    },
    {
      "sn": 501,
      "district": "Shaheed Bhagat Singh Nagar",
      "name": "PHC Muzaffarpur",
      "latitude": 31.043303,
      "longitude": 76.226084,
      "status": "Functional"
    },
    {
      "sn": 502,
      "district": "Shaheed Bhagat Singh Nagar",
      "name": "PHC Jadla",
      "latitude": 31.081952,
      "longitude": 76.216072,
      "status": "Functional"
    },
    {
      "sn": 503,
      "district": "Shaheed Bhagat Singh Nagar",
      "name": "PHC Sujjon",
      "latitude": 31.208869,
      "longitude": 76.072209,
      "status": "Functional"
    },
    {
      "sn": 505,
      "district": "Shaheed Bhagat Singh Nagar",
      "name": "PHC Behram",
      "latitude": 31.204629,
      "longitude": 75.893671,
      "status": "Functional"
    },
    {
      "sn": 506,
      "district": "Shaheed Bhagat Singh Nagar",
      "name": "UPHC Nawanshahar",
      "latitude": 31.12232,
      "longitude": 76.110979,
      "status": "Functional"
    },
    {
      "sn": 507,
      "district": "Tarn Taran",
      "name": "Drug Rehabilitation Centre, Village Tharu, Tarn Taran",
      "latitude": 31.477625,
      "longitude": 74.878764,
      "status": "Functional"
    },
    {
      "sn": 508,
      "district": "Tarn Taran",
      "name": "Drug Rehabilitation Centre, Vill. Bhagupur Havelian, Tarn Taran",
      "latitude": 31.247224,
      "longitude": 74.838058,
      "status": "Functional"
    },
    {
      "sn": 509,
      "district": "Tarn Taran",
      "name": "SDH Khadoor Sahib",
      "latitude": 31.359638,
      "longitude": 75.141096,
      "status": "Functional"
    },
    {
      "sn": 510,
      "district": "Tarn Taran",
      "name": "CHC Mianwind",
      "latitude": 31.480773,
      "longitude": 75.154572,
      "status": "Functional"
    },
    {
      "sn": 511,
      "district": "Tarn Taran",
      "name": "CHC Ghariala",
      "latitude": 31.228948,
      "longitude": 74.738118,
      "status": "Functional"
    },
    {
      "sn": 512,
      "district": "Tarn Taran",
      "name": "CHC Sirhali",
      "latitude": 31.099691,
      "longitude": 74.915742,
      "status": "Functional"
    },
    {
      "sn": 513,
      "district": "Tarn Taran",
      "name": "CHC Sur Singh Wala",
      "latitude": 31.391763,
      "longitude": 74.723967,
      "status": "Functional"
    },
    {
      "sn": 514,
      "district": "Tarn Taran",
      "name": "CHC Naushera Pannuan",
      "latitude": 31.339815,
      "longitude": 74.956008,
      "status": "Functional"
    },
    {
      "sn": 515,
      "district": "Tarn Taran",
      "name": "CHC Khem Karan",
      "latitude": 31.144545,
      "longitude": 74.568848,
      "status": "Functional"
    },
    {
      "sn": 516,
      "district": "Tarn Taran",
      "name": "CHC Kairon",
      "latitude": 31.327125,
      "longitude": 74.864351,
      "status": "Functional"
    },
    {
      "sn": 517,
      "district": "Tarn Taran",
      "name": "CHC Hari Ke Pattan",
      "latitude": 31.16666,
      "longitude": 74.945748,
      "status": "Functional"
    },
    {
      "sn": 518,
      "district": "Tarn Taran",
      "name": "CHC Kasel",
      "latitude": 31.539207,
      "longitude": 74.748535,
      "status": "Functional"
    },
    {
      "sn": 519,
      "district": "Tarn Taran",
      "name": "CHC Brahmpura",
      "latitude": 31.290114,
      "longitude": 75.019995,
      "status": "Functional"
    },
    {
      "sn": 520,
      "district": "Tarn Taran",
      "name": "DH Tarn Taran",
      "latitude": 31.480773,
      "longitude": 75.154572,
      "status": "Functional"
    },
    {
      "sn": 521,
      "district": "Tarn Taran",
      "name": "SDH Patti",
      "latitude": 31.279671,
      "longitude": 74.867186,
      "status": "Functional"
    },
    {
      "sn": 522,
      "district": "Tarn Taran",
      "name": "PHC Bhikhiwind",
      "latitude": 31.346042,
      "longitude": 74.693795,
      "status": "Functional"
    },
    {
      "sn": 523,
      "district": "Tarn Taran",
      "name": "PHC Kirtowal",
      "latitude": 31.18895,
      "longitude": 74.891831,
      "status": "Functional"
    },
    {
      "sn": 524,
      "district": "Tarn Taran",
      "name": "PHC Rajoke",
      "latitude": 31.240658,
      "longitude": 75.022039,
      "status": "Functional"
    },
    {
      "sn": 525,
      "district": "Tarn Taran",
      "name": "PHC Goindwal",
      "latitude": 31.367576,
      "longitude": 75.156367,
      "status": "Functional"
    },
    {
      "sn": 526,
      "district": "Tarn Taran",
      "name": "PHC Dhotian",
      "latitude": 31.37587,
      "longitude": 75.001954,
      "status": "Functional"
    },
    {
      "sn": 527,
      "district": "Tarn Taran",
      "name": "PHC Chhabhal",
      "latitude": 31.483997,
      "longitude": 74.792433,
      "status": "Functional"
    },
    {
      "sn": 528,
      "district": "Tarn Taran",
      "name": "PHC Delka",
      "latitude": 31.416239,
      "longitude": 74.874486,
      "status": "Functional"
    },
    {
      "sn": 529,
      "district": "Tarn Taran",
      "name": "Central Jail Sri Goindwal Sahib",
      "latitude": 31.357278,
      "longitude": 75.132645,
      "status": "Functional"
    },
    {
      "sn": 530,
      "district": "GURU HAR SAHAI",
      "name": "HAKIM KISHORI LAL HOSPITAL PVT. LTD.",
      "latitude": 30.7105367,
      "longitude": 74.3990735,
      "status": "Non-Functional"
    },
    {
      "sn": 531,
      "district": "SAS nagar Mohali",
      "name": "CHC Lalru",
      "latitude": 30.4916,
      "longitude": 76.8029,
      "status": "Functional"
    }
  ],
  "clinicsByDistrict": {
    "Amritsar": [
      {
        "sn": 1,
        "district": "Amritsar",
        "name": "Drug Rehabilitation Centre, Dhobhi Ghat, Amritsar",
        "latitude": 31.6483,
        "longitude": 74.88383,
        "status": "Functional"
      },
      {
        "sn": 2,
        "district": "Amritsar",
        "name": "Central Jail, Amritsar",
        "latitude": 31.601132794958,
        "longitude": 74.8433260819208,
        "status": "Functional"
      },
      {
        "sn": 3,
        "district": "Amritsar",
        "name": "PHC Chawinda Devi",
        "latitude": 31.71625,
        "longitude": 75.09745,
        "status": "Functional"
      },
      {
        "sn": 4,
        "district": "Amritsar",
        "name": "SDH Baba Bakala",
        "latitude": 31.5574014632461,
        "longitude": 75.2666556406716,
        "status": "Functional"
      },
      {
        "sn": 5,
        "district": "Amritsar",
        "name": "SDH Ajnala",
        "latitude": 31.84391,
        "longitude": 74.76251,
        "status": "Functional"
      },
      {
        "sn": 6,
        "district": "Amritsar",
        "name": "CHC Tarsika",
        "latitude": 31.6440255198996,
        "longitude": 75.119300013725,
        "status": "Functional"
      },
      {
        "sn": 7,
        "district": "Amritsar",
        "name": "CHC Lopoke",
        "latitude": 31.7181101607935,
        "longitude": 74.6266078723938,
        "status": "Functional"
      },
      {
        "sn": 8,
        "district": "Amritsar",
        "name": "CHC Majitha",
        "latitude": 31.75736,
        "longitude": 74.96097,
        "status": "Functional"
      },
      {
        "sn": 9,
        "district": "Amritsar",
        "name": "CHC Manawala",
        "latitude": 31.58336,
        "longitude": 74.98572,
        "status": "Functional"
      },
      {
        "sn": 10,
        "district": "Amritsar",
        "name": "CHC Verka",
        "latitude": 31.6625009889322,
        "longitude": 74.9266259819238,
        "status": "Functional"
      },
      {
        "sn": 11,
        "district": "Amritsar",
        "name": "CHC Mehta",
        "latitude": 31.6759,
        "longitude": 75.2508,
        "status": "Functional"
      },
      {
        "sn": 12,
        "district": "Amritsar",
        "name": "Maqboolpura Drug Hotspot Treatment",
        "latitude": 31.6268967,
        "longitude": 74.901426,
        "status": "Functional"
      },
      {
        "sn": 13,
        "district": "Amritsar",
        "name": "SHC Sultanwind Pilot Project",
        "latitude": 31.6031,
        "longitude": 74.9091,
        "status": "Functional"
      },
      {
        "sn": 14,
        "district": "Amritsar",
        "name": "PHC Raja Sansi",
        "latitude": 31.7218706347681,
        "longitude": 74.8011543377465,
        "status": "Functional"
      },
      {
        "sn": 15,
        "district": "Amritsar",
        "name": "PHC Khalchian",
        "latitude": 31.54964,
        "longitude": 75.17496,
        "status": "Functional"
      },
      {
        "sn": 16,
        "district": "Amritsar",
        "name": "PHC Butala",
        "latitude": 31.61192,
        "longitude": 75.32496,
        "status": "Functional"
      },
      {
        "sn": 17,
        "district": "Amritsar",
        "name": "PHC Attari",
        "latitude": 31.604767552904,
        "longitude": 74.6077802759635,
        "status": "Functional"
      },
      {
        "sn": 20,
        "district": "Amritsar",
        "name": "PHC Veer Pal",
        "latitude": 31.54762,
        "longitude": 74.91559,
        "status": "Functional"
      },
      {
        "sn": 21,
        "district": "Amritsar",
        "name": "PHC Wadla Viram",
        "latitude": 31.8221,
        "longitude": 74.9846,
        "status": "Functional"
      },
      {
        "sn": 22,
        "district": "Amritsar",
        "name": "PHC Ramdas",
        "latitude": 31.96279,
        "longitude": 74.90555,
        "status": "Functional"
      },
      {
        "sn": 23,
        "district": "Amritsar",
        "name": "PHC Gaggo Mehal",
        "latitude": 31.90971,
        "longitude": 74.811508,
        "status": "Functional"
      },
      {
        "sn": 24,
        "district": "Amritsar",
        "name": "Bhai Mohkam Singh Memorial Satelite Hospital",
        "latitude": 31.61035,
        "longitude": 74.87544,
        "status": "Functional"
      },
      {
        "sn": 25,
        "district": "Amritsar",
        "name": "UPHC Bhagtanwala",
        "latitude": 31.6106,
        "longitude": 74.87221,
        "status": "Functional"
      },
      {
        "sn": 26,
        "district": "Amritsar",
        "name": "UPHC Gate Khazana",
        "latitude": 31.62182,
        "longitude": 74.86585,
        "status": "Functional"
      },
      {
        "sn": 27,
        "district": "Amritsar",
        "name": "UPHC Gawal Mandi",
        "latitude": 31.63546,
        "longitude": 74.85338,
        "status": "Functional"
      },
      {
        "sn": 28,
        "district": "Amritsar",
        "name": "UPHC Haripura",
        "latitude": 31.62733,
        "longitude": 74.84911,
        "status": "Functional"
      },
      {
        "sn": 29,
        "district": "Amritsar",
        "name": "UPHC Jodhnagar",
        "latitude": 31.61241,
        "longitude": 74.89024,
        "status": "Functional"
      },
      {
        "sn": 30,
        "district": "Amritsar",
        "name": "UPHC Putligarh",
        "latitude": 31.63708,
        "longitude": 74.84453,
        "status": "Functional"
      },
      {
        "sn": 31,
        "district": "Amritsar",
        "name": "UPHC Rambagh",
        "latitude": 31.62942,
        "longitude": 74.88124,
        "status": "Functional"
      },
      {
        "sn": 32,
        "district": "Amritsar",
        "name": "Bhai Daya Singh Memorial Satelite Hospital",
        "latitude": 31.6577,
        "longitude": 74.90744,
        "status": "Functional"
      },
      {
        "sn": 33,
        "district": "Amritsar",
        "name": "Bhai Dharam Singh Memorial Satelite Hospital",
        "latitude": 31.66114,
        "longitude": 74.86696,
        "status": "Functional"
      },
      {
        "sn": 34,
        "district": "Amritsar",
        "name": "Bhai Himant Singh Memorial Satelite Hospital",
        "latitude": 31.63861,
        "longitude": 74.80843,
        "status": "Functional"
      },
      {
        "sn": 35,
        "district": "Amritsar",
        "name": "Bhai Sahib Singh Memorial Satelite Hospital",
        "latitude": 31.59718,
        "longitude": 74.8414,
        "status": "Functional"
      },
      {
        "sn": 36,
        "district": "Amritsar",
        "name": "UPHC Basant Avenue",
        "latitude": 31.65187,
        "longitude": 74.87321,
        "status": "Functional"
      },
      {
        "sn": 37,
        "district": "Amritsar",
        "name": "UPHC Chheherta",
        "latitude": 31.62818,
        "longitude": 74.80341,
        "status": "Functional"
      },
      {
        "sn": 38,
        "district": "Amritsar",
        "name": "UPHC Kangara Colony",
        "latitude": 31.63874,
        "longitude": 74.90259,
        "status": "Functional"
      },
      {
        "sn": 39,
        "district": "Amritsar",
        "name": "UPHC Kot Khalsa",
        "latitude": 31.62251,
        "longitude": 74.82738,
        "status": "Functional"
      },
      {
        "sn": 41,
        "district": "Amritsar",
        "name": "UCHC Naraingarh Chahreta",
        "latitude": 31.6293577219272,
        "longitude": 74.7790655554618,
        "status": "Functional"
      },
      {
        "sn": 42,
        "district": "Amritsar",
        "name": "CH Amritsar",
        "latitude": 31.6340509,
        "longitude": 74.8787685,
        "status": "Functional"
      },
      {
        "sn": 43,
        "district": "Amritsar",
        "name": "PHC Threawal",
        "latitude": 31.7713754191324,
        "longitude": 75.0500522684374,
        "status": "Functional"
      }
    ],
    "Barnala": [
      {
        "sn": 44,
        "district": "Barnala",
        "name": "Drug Rehabilitation Centre, Sohal Patti, Barnala",
        "latitude": 30.379411,
        "longitude": 75.489424,
        "status": "Functional"
      },
      {
        "sn": 45,
        "district": "Barnala",
        "name": "SDH Tapa",
        "latitude": 30.30721,
        "longitude": 75.37315,
        "status": "Functional"
      },
      {
        "sn": 46,
        "district": "Barnala",
        "name": "CHC Dhanaula",
        "latitude": 30.28327,
        "longitude": 75.577473,
        "status": "Functional"
      },
      {
        "sn": 47,
        "district": "Barnala",
        "name": "CHC Mehal Kalan",
        "latitude": 30.5319,
        "longitude": 75.56821,
        "status": "Functional"
      },
      {
        "sn": 48,
        "district": "Barnala",
        "name": "CHC Channawal",
        "latitude": 30.50911,
        "longitude": 75.49495,
        "status": "Functional"
      },
      {
        "sn": 49,
        "district": "Barnala",
        "name": "CHC Bhadaur",
        "latitude": 30.474272,
        "longitude": 75.326645,
        "status": "Functional"
      },
      {
        "sn": 50,
        "district": "Barnala",
        "name": "DISTRICT JAIL",
        "latitude": 30.388675,
        "longitude": 75.497685,
        "status": "Functional"
      },
      {
        "sn": 51,
        "district": "Barnala",
        "name": "PHC Shekha",
        "latitude": 30.57089,
        "longitude": 75.01288,
        "status": "Non-Functional"
      },
      {
        "sn": 52,
        "district": "Barnala",
        "name": "PHC Hamidi",
        "latitude": 30.463668,
        "longitude": 75.604484,
        "status": "Functional"
      },
      {
        "sn": 53,
        "district": "Barnala",
        "name": "PHC Rurke Kalan",
        "latitude": 30.2529365,
        "longitude": 75.444979,
        "status": "Functional"
      },
      {
        "sn": 54,
        "district": "Barnala",
        "name": "PHC Sehna",
        "latitude": 30.43136,
        "longitude": 75.3759,
        "status": "Non-Functional"
      },
      {
        "sn": 55,
        "district": "Barnala",
        "name": "PHC Chhapa",
        "latitude": 30.55024,
        "longitude": 75.65039,
        "status": "Functional"
      },
      {
        "sn": 56,
        "district": "Barnala",
        "name": "UPHC Prem Nagar",
        "latitude": 30.35884,
        "longitude": 75.55372,
        "status": "Functional"
      },
      {
        "sn": 57,
        "district": "Barnala",
        "name": "UPHC Sandhu Patti",
        "latitude": 30.38206,
        "longitude": 75.54952,
        "status": "Non-Functional"
      },
      {
        "sn": 58,
        "district": "Barnala",
        "name": "CH Barnala",
        "latitude": 30.375582,
        "longitude": 75.542902,
        "status": "Functional"
      }
    ],
    "Bathinda": [
      {
        "sn": 59,
        "district": "Bathinda",
        "name": "DH Bathinda",
        "latitude": 30.16948,
        "longitude": 74.96507,
        "status": "Functional"
      },
      {
        "sn": 60,
        "district": "Bathinda",
        "name": "Central Jail, Bathinda",
        "latitude": 30.19659,
        "longitude": 74.95362,
        "status": "Functional"
      },
      {
        "sn": 61,
        "district": "Bathinda",
        "name": "SDH Rampura Phul",
        "latitude": 30.2701,
        "longitude": 75.2398,
        "status": "Functional"
      },
      {
        "sn": 62,
        "district": "Bathinda",
        "name": "SDH Talwandi Sabo",
        "latitude": 29.91848,
        "longitude": 75.1119,
        "status": "Functional"
      },
      {
        "sn": 63,
        "district": "Bathinda",
        "name": "CHC Bhagta",
        "latitude": 30.2661,
        "longitude": 75.858,
        "status": "Functional"
      },
      {
        "sn": 64,
        "district": "Bathinda",
        "name": "CHC Goniana",
        "latitude": 30.31991,
        "longitude": 74.91794,
        "status": "Functional"
      },
      {
        "sn": 65,
        "district": "Bathinda",
        "name": "CHC Nathana",
        "latitude": 30.3391,
        "longitude": 75.00215,
        "status": "Functional"
      },
      {
        "sn": 66,
        "district": "Bathinda",
        "name": "CHC Mehraj",
        "latitude": 30.31086,
        "longitude": 75.23732,
        "status": "Functional"
      },
      {
        "sn": 67,
        "district": "Bathinda",
        "name": "CHC Bucho Mandi",
        "latitude": 30.21323,
        "longitude": 75.0903,
        "status": "Functional"
      },
      {
        "sn": 68,
        "district": "Bathinda",
        "name": "CHC Sangat",
        "latitude": 30.211,
        "longitude": 74.94546,
        "status": "Functional"
      },
      {
        "sn": 69,
        "district": "Bathinda",
        "name": "CHC Maur Mandi",
        "latitude": 30.03166,
        "longitude": 75.24011,
        "status": "Functional"
      },
      {
        "sn": 70,
        "district": "Bathinda",
        "name": "CHC Rama Mandi",
        "latitude": 29.96155,
        "longitude": 74.94475,
        "status": "Functional"
      },
      {
        "sn": 71,
        "district": "Bathinda",
        "name": "PHC Virk Kalan",
        "latitude": 30.030166,
        "longitude": 74.82069,
        "status": "Functional"
      },
      {
        "sn": 72,
        "district": "Bathinda",
        "name": "Special Jail, Bathinda",
        "latitude": 30.19659,
        "longitude": 74.95362,
        "status": "Functional"
      },
      {
        "sn": 73,
        "district": "Bathinda",
        "name": "CHC,Ballianwali",
        "latitude": 30.2661,
        "longitude": 75.25343,
        "status": "Functional"
      },
      {
        "sn": 74,
        "district": "Bathinda",
        "name": "PHC Maiser Khana",
        "latitude": 30.03166,
        "longitude": 75.24011,
        "status": "Functional"
      },
      {
        "sn": 75,
        "district": "Bathinda",
        "name": "PHC Kotshamir",
        "latitude": 30.10875,
        "longitude": 75.091,
        "status": "Functional"
      },
      {
        "sn": 76,
        "district": "Bathinda",
        "name": "PHC Jeeda",
        "latitude": 30.37376,
        "longitude": 74.98844,
        "status": "Functional"
      },
      {
        "sn": 77,
        "district": "Bathinda",
        "name": "SDH Ghudda",
        "latitude": 30.12448,
        "longitude": 74.78928,
        "status": "Functional"
      },
      {
        "sn": 78,
        "district": "Bathinda",
        "name": "PHC Pakka Kalan",
        "latitude": 30.03494,
        "longitude": 74.85074,
        "status": "Functional"
      },
      {
        "sn": 79,
        "district": "Bathinda",
        "name": "PHC Chak Atar Singh Wala",
        "latitude": 30.04094,
        "longitude": 74.82516,
        "status": "Functional"
      },
      {
        "sn": 80,
        "district": "Bathinda",
        "name": "PHC Lehra Mohabbat",
        "latitude": 30.23853,
        "longitude": 75.16501,
        "status": "Functional"
      },
      {
        "sn": 81,
        "district": "Bathinda",
        "name": "PHC Dyal Pur Mirja",
        "latitude": 30.35155,
        "longitude": 75.08055,
        "status": "Functional"
      },
      {
        "sn": 82,
        "district": "Bathinda",
        "name": "PHC Mandi Kalan",
        "latitude": 30.2661,
        "longitude": 75.25343,
        "status": "Functional"
      },
      {
        "sn": 83,
        "district": "Bathinda",
        "name": "UPHC Beant Nagar",
        "latitude": 30.20672,
        "longitude": 74.96462,
        "status": "Functional"
      },
      {
        "sn": 84,
        "district": "Bathinda",
        "name": "UPHC Janta Nagar",
        "latitude": 30.22841,
        "longitude": 74.9278,
        "status": "Functional"
      },
      {
        "sn": 85,
        "district": "Bathinda",
        "name": "UPHC Lal Singh Basti",
        "latitude": 30.19759,
        "longitude": 74.92886,
        "status": "Functional"
      },
      {
        "sn": 86,
        "district": "Bathinda",
        "name": "UPHC Parasram Nagar",
        "latitude": 30.21084,
        "longitude": 74.92284,
        "status": "Functional"
      },
      {
        "sn": 87,
        "district": "Bathinda",
        "name": "Mandi Phul UPHC",
        "latitude": 30.31086,
        "longitude": 75.23732,
        "status": "Functional"
      }
    ],
    "Faridkot": [
      {
        "sn": 88,
        "district": "Faridkot",
        "name": "Drug Rehabilitation Centre, Arriyan Wala Road, Faridkot",
        "latitude": 30.68315,
        "longitude": 74.741091,
        "status": "Functional"
      },
      {
        "sn": 89,
        "district": "Faridkot",
        "name": "SDH Kot Kapura",
        "latitude": 30.585275,
        "longitude": 74.819489,
        "status": "Functional"
      },
      {
        "sn": 90,
        "district": "Faridkot",
        "name": "Central Jail Faridkot",
        "latitude": 30.6900467,
        "longitude": 74.779933,
        "status": "Functional"
      },
      {
        "sn": 91,
        "district": "Faridkot",
        "name": "CHC Baja Khana",
        "latitude": 30.4553,
        "longitude": 74.9808,
        "status": "Functional"
      },
      {
        "sn": 92,
        "district": "Faridkot",
        "name": "CHC Sadiq",
        "latitude": 30.710235,
        "longitude": 74.581997,
        "status": "Functional"
      },
      {
        "sn": 93,
        "district": "Faridkot",
        "name": "CHC Jaitu",
        "latitude": 30.44963,
        "longitude": 74.88239,
        "status": "Functional"
      },
      {
        "sn": 94,
        "district": "Faridkot",
        "name": "DH Faridkot",
        "latitude": 30.679213,
        "longitude": 74.760754,
        "status": "Functional"
      },
      {
        "sn": 95,
        "district": "Faridkot",
        "name": "PHC Golewala Aulakh Road",
        "latitude": 30.7991826,
        "longitude": 74.6941486,
        "status": "Functional"
      },
      {
        "sn": 96,
        "district": "Faridkot",
        "name": "PHC Panjgarain Kalan Aulakh Road",
        "latitude": 30.611978,
        "longitude": 74.914208,
        "status": "Functional"
      },
      {
        "sn": 97,
        "district": "Faridkot",
        "name": "PHC Jand Sahib",
        "latitude": 30.689447,
        "longitude": 74.529051,
        "status": "Functional"
      },
      {
        "sn": 98,
        "district": "Faridkot",
        "name": "PHC Guru Sar",
        "latitude": 30.5287,
        "longitude": 74.8938,
        "status": "Functional"
      },
      {
        "sn": 99,
        "district": "Faridkot",
        "name": "UPHC Balbir Basti",
        "latitude": 30.67419,
        "longitude": 74.76619,
        "status": "Functional"
      },
      {
        "sn": 100,
        "district": "Faridkot",
        "name": "UPHC GGS Faridkot",
        "latitude": 30.678472,
        "longitude": 74.740615,
        "status": "Functional"
      },
      {
        "sn": 101,
        "district": "Faridkot",
        "name": "UPHC Basti Surgapur Kotkapura",
        "latitude": 30.5796,
        "longitude": 74.8134,
        "status": "Functional"
      }
    ],
    "Fatehgarh Sahib": [
      {
        "sn": 102,
        "district": "Fatehgarh Sahib",
        "name": "Drug Rehabilitation Centre, Vill. Bahman Majra, Fatehgarh Sahib",
        "latitude": 30.6240921,
        "longitude": 76.39122,
        "status": "Functional"
      },
      {
        "sn": 103,
        "district": "Fatehgarh Sahib",
        "name": "SDH Mandi Gobindgarh",
        "latitude": 30.6686,
        "longitude": 76.2949,
        "status": "Functional"
      },
      {
        "sn": 104,
        "district": "Fatehgarh Sahib",
        "name": "CHC Chanarthal Kalan",
        "latitude": 30.5176,
        "longitude": 76.3449,
        "status": "Functional"
      },
      {
        "sn": 105,
        "district": "Fatehgarh Sahib",
        "name": "CHC Khera",
        "latitude": 30.60430672,
        "longitude": 76.48750882,
        "status": "Functional"
      },
      {
        "sn": 106,
        "district": "Fatehgarh Sahib",
        "name": "CHC Amloh",
        "latitude": 30.61,
        "longitude": 76.23,
        "status": "Functional"
      },
      {
        "sn": 107,
        "district": "Fatehgarh Sahib",
        "name": "CHC Bassi Pathana",
        "latitude": 30.7097,
        "longitude": 76.4084,
        "status": "Functional"
      },
      {
        "sn": 108,
        "district": "Fatehgarh Sahib",
        "name": "CHC Khamano",
        "latitude": 30.81725,
        "longitude": 76.35478,
        "status": "Functional"
      },
      {
        "sn": 109,
        "district": "Fatehgarh Sahib",
        "name": "PHC Nandpur Kalaur",
        "latitude": 30.71571,
        "longitude": 76.47523,
        "status": "Functional"
      },
      {
        "sn": 110,
        "district": "Fatehgarh Sahib",
        "name": "PHC Bhagrana",
        "latitude": 30.6042,
        "longitude": 76.5759,
        "status": "Functional"
      },
      {
        "sn": 111,
        "district": "Fatehgarh Sahib",
        "name": "PHC Nogawan",
        "latitude": 30.74175,
        "longitude": 76.77269,
        "status": "Non-Functional"
      },
      {
        "sn": 112,
        "district": "Fatehgarh Sahib",
        "name": "PHC Mulepur",
        "latitude": 30.4989,
        "longitude": 76.4281,
        "status": "Functional"
      },
      {
        "sn": 113,
        "district": "Fatehgarh Sahib",
        "name": "PHC Sangat Pur Sodian",
        "latitude": 30.5734,
        "longitude": 76.3607,
        "status": "Functional"
      },
      {
        "sn": 114,
        "district": "Fatehgarh Sahib",
        "name": "PHC Ladpur",
        "latitude": 30.59772,
        "longitude": 76.14948,
        "status": "Functional"
      },
      {
        "sn": 115,
        "district": "Fatehgarh Sahib",
        "name": "PHC Sanghol",
        "latitude": 30.7842,
        "longitude": 76.3921,
        "status": "Functional"
      },
      {
        "sn": 116,
        "district": "Fatehgarh Sahib",
        "name": "PHC Bhari",
        "latitude": 30.7473571,
        "longitude": 76.32545,
        "status": "Functional"
      },
      {
        "sn": 117,
        "district": "Fatehgarh Sahib",
        "name": "UPHC 1 / UPHC Gobindgarh",
        "latitude": 30.39,
        "longitude": 76.2324,
        "status": "Functional"
      },
      {
        "sn": 118,
        "district": "Fatehgarh Sahib",
        "name": "UPHC Bara",
        "latitude": 30.61528,
        "longitude": 76.3794,
        "status": "Functional"
      },
      {
        "sn": 119,
        "district": "Fatehgarh Sahib",
        "name": "CH Fatehgarh Sahib",
        "latitude": 30.6466,
        "longitude": 76.3901,
        "status": "Functional"
      }
    ],
    "Fazilka": [
      {
        "sn": 120,
        "district": "Fazilka",
        "name": "Drug Rehabilitation Centre, Village Jatwali, Fazilka",
        "latitude": 30.403648,
        "longitude": 74.027962,
        "status": "Functional"
      },
      {
        "sn": 121,
        "district": "Fazilka",
        "name": "SDH Abohar",
        "latitude": 30.143044,
        "longitude": 74.197077,
        "status": "Functional"
      },
      {
        "sn": 122,
        "district": "Fazilka",
        "name": "CHC Dhabwala Kalan",
        "latitude": 30.3288,
        "longitude": 74.2576,
        "status": "Functional"
      },
      {
        "sn": 123,
        "district": "Fazilka",
        "name": "CHC Khui Khera",
        "latitude": 30.295617,
        "longitude": 74.098658,
        "status": "Functional"
      },
      {
        "sn": 124,
        "district": "Fazilka",
        "name": "CHC Sito Gunno",
        "latitude": 30.028499,
        "longitude": 74.362434,
        "status": "Functional"
      },
      {
        "sn": 125,
        "district": "Fazilka",
        "name": "CHC Wahabwala",
        "latitude": 30.24745,
        "longitude": 74.01421,
        "status": "Functional"
      },
      {
        "sn": 126,
        "district": "Fazilka",
        "name": "CHC Ramsara",
        "latitude": 30.403648,
        "longitude": 74.027962,
        "status": "Functional"
      },
      {
        "sn": 127,
        "district": "Fazilka",
        "name": "CHC Jalalabadh",
        "latitude": 30.6278,
        "longitude": 74.262,
        "status": "Functional"
      },
      {
        "sn": 128,
        "district": "Fazilka",
        "name": "PHC Taliwal Bodhla",
        "latitude": 30.80093,
        "longitude": 74.51638,
        "status": "Functional"
      },
      {
        "sn": 129,
        "district": "Fazilka",
        "name": "PHC Karni Khera",
        "latitude": 30.37303,
        "longitude": 73.97988,
        "status": "Functional"
      },
      {
        "sn": 130,
        "district": "Fazilka",
        "name": "PHC Kundal",
        "latitude": 30.2146,
        "longitude": 74.2635,
        "status": "Functional"
      },
      {
        "sn": 131,
        "district": "Fazilka",
        "name": "PHC Waryam Khera",
        "latitude": 30.02303,
        "longitude": 74.08123,
        "status": "Functional"
      },
      {
        "sn": 132,
        "district": "Fazilka",
        "name": "PHC Pani Wala Mahala",
        "latitude": 30.403648,
        "longitude": 74.027962,
        "status": "Functional"
      },
      {
        "sn": 133,
        "district": "Fazilka",
        "name": "PHC Killian Wali",
        "latitude": 30.14178,
        "longitude": 74.01133,
        "status": "Functional"
      },
      {
        "sn": 134,
        "district": "Fazilka",
        "name": "PHC Kaller Khera",
        "latitude": 30.0389104567194,
        "longitude": 73.9538531876652,
        "status": "Functional"
      },
      {
        "sn": 135,
        "district": "Fazilka",
        "name": "PHC Kheowali Dhab",
        "latitude": 30.24879,
        "longitude": 74.01512,
        "status": "Functional"
      },
      {
        "sn": 136,
        "district": "Fazilka",
        "name": "PHC Jandwala Bhimeshah",
        "latitude": 30.403648,
        "longitude": 74.027962,
        "status": "Functional"
      },
      {
        "sn": 137,
        "district": "Fazilka",
        "name": "PHC Laduka Mandi",
        "latitude": 30.6874503,
        "longitude": 74.3172297,
        "status": "Functional"
      },
      {
        "sn": 138,
        "district": "Fazilka",
        "name": "PHC Ghubaya",
        "latitude": 30.56156,
        "longitude": 74.14015,
        "status": "Functional"
      },
      {
        "sn": 139,
        "district": "Fazilka",
        "name": "UPHC Guru Kirpa Colony",
        "latitude": 30.403648,
        "longitude": 74.027962,
        "status": "Functional"
      },
      {
        "sn": 140,
        "district": "Fazilka",
        "name": "UPHC Id Gah Basti",
        "latitude": 30.403648,
        "longitude": 74.027962,
        "status": "Functional"
      },
      {
        "sn": 141,
        "district": "Fazilka",
        "name": "UPHC Dhobighat Colony",
        "latitude": 30.04537,
        "longitude": 73.95427,
        "status": "Functional"
      },
      {
        "sn": 142,
        "district": "Fazilka",
        "name": "CH Fazilka",
        "latitude": 30.407174,
        "longitude": 74.026271,
        "status": "Functional"
      }
    ],
    "Ferozpur": [
      {
        "sn": 143,
        "district": "Ferozpur",
        "name": "Drug Rehabilitation Centre, DH, Ferozpur",
        "latitude": 30.9522,
        "longitude": 74.608,
        "status": "Functional"
      },
      {
        "sn": 144,
        "district": "Ferozpur",
        "name": "SDH Zira",
        "latitude": 30.96853,
        "longitude": 74.99106,
        "status": "Functional"
      },
      {
        "sn": 145,
        "district": "Ferozpur",
        "name": "CHC Mamdot",
        "latitude": 30.8697,
        "longitude": 74.4205,
        "status": "Functional"
      },
      {
        "sn": 146,
        "district": "Ferozpur",
        "name": "CHC Guru Har Sahai",
        "latitude": 30.7142872,
        "longitude": 74.4023497,
        "status": "Functional"
      },
      {
        "sn": 147,
        "district": "Ferozpur",
        "name": "CHC Makhu",
        "latitude": 31.107153,
        "longitude": 74.976402,
        "status": "Functional"
      },
      {
        "sn": 148,
        "district": "Ferozpur",
        "name": "CHC Ferozshah",
        "latitude": 30.8777825,
        "longitude": 74.7855,
        "status": "Functional"
      },
      {
        "sn": 149,
        "district": "Ferozpur",
        "name": "Central Jail, Ferozpur",
        "latitude": 30.9509764790594,
        "longitude": 74.6154791728957,
        "status": "Functional"
      },
      {
        "sn": 150,
        "district": "Ferozpur",
        "name": "PHC Malanwala",
        "latitude": 31.050695,
        "longitude": 74.817877,
        "status": "Functional"
      },
      {
        "sn": 151,
        "district": "Ferozpur",
        "name": "PHC Nur Pur Sethan",
        "latitude": 30.87622,
        "longitude": 74.63726,
        "status": "Functional"
      },
      {
        "sn": 152,
        "district": "Ferozpur",
        "name": "PHC Arifke",
        "latitude": 31.03999,
        "longitude": 74.7425,
        "status": "Functional"
      },
      {
        "sn": 153,
        "district": "Ferozpur",
        "name": "PHC Lakho Ke Behram",
        "latitude": 30.83392,
        "longitude": 74.45792,
        "status": "Functional"
      },
      {
        "sn": 154,
        "district": "Ferozpur",
        "name": "PHC Lallae",
        "latitude": 30.84203625,
        "longitude": 74.89549532532,
        "status": "Functional"
      },
      {
        "sn": 155,
        "district": "Ferozpur",
        "name": "PHC Mudki",
        "latitude": 30.77583,
        "longitude": 74.88225,
        "status": "Functional"
      },
      {
        "sn": 156,
        "district": "Ferozpur",
        "name": "PHC Sohan Garh",
        "latitude": 30.6111403,
        "longitude": 74.3867852,
        "status": "Functional"
      },
      {
        "sn": 157,
        "district": "Ferozpur",
        "name": "PHC Jiwa Arain",
        "latitude": 30.6931152,
        "longitude": 74.3228857,
        "status": "Functional"
      },
      {
        "sn": 158,
        "district": "Ferozpur",
        "name": "PHC Kassoana",
        "latitude": 30.95004,
        "longitude": 74.88986,
        "status": "Functional"
      },
      {
        "sn": 159,
        "district": "Ferozpur",
        "name": "PHC Wakilan Wala",
        "latitude": 30.590607,
        "longitude": 75.280771,
        "status": "Functional"
      },
      {
        "sn": 160,
        "district": "Ferozpur",
        "name": "UPHC Cantt",
        "latitude": 30.9234214038953,
        "longitude": 74.6191653074269,
        "status": "Functional"
      },
      {
        "sn": 161,
        "district": "Ferozpur",
        "name": "UPHC City 1",
        "latitude": 30.9384675,
        "longitude": 74.6236711,
        "status": "Functional"
      }
    ],
    "Gurdaspur": [
      {
        "sn": 162,
        "district": "Gurdaspur",
        "name": "Drug Rehabilitation Centre, Vill. Jeevanwal Babri, Gurdaspur",
        "latitude": 32.01675,
        "longitude": 75.38445,
        "status": "Functional"
      },
      {
        "sn": 163,
        "district": "Gurdaspur",
        "name": "Central Jail, Gurdaspur",
        "latitude": 32.0480010996719,
        "longitude": 75.4057428242709,
        "status": "Functional"
      },
      {
        "sn": 164,
        "district": "Gurdaspur",
        "name": "SDH Batala",
        "latitude": 31.8205869263857,
        "longitude": 75.2005888671267,
        "status": "Functional"
      },
      {
        "sn": 165,
        "district": "Gurdaspur",
        "name": "CHC Singowal",
        "latitude": 32.12170946,
        "longitude": 75.47832107,
        "status": "Functional"
      },
      {
        "sn": 166,
        "district": "Gurdaspur",
        "name": "CHC Bham",
        "latitude": 31.780879,
        "longitude": 75.451318,
        "status": "Functional"
      },
      {
        "sn": 167,
        "district": "Gurdaspur",
        "name": "CHC Ghuman",
        "latitude": 31.690526,
        "longitude": 75.376256,
        "status": "Functional"
      },
      {
        "sn": 168,
        "district": "Gurdaspur",
        "name": "CHC Qadian",
        "latitude": 31.811791,
        "longitude": 75.369341,
        "status": "Functional"
      },
      {
        "sn": 169,
        "district": "Gurdaspur",
        "name": "CHC Dera Baba Nanak",
        "latitude": 32.0338283879178,
        "longitude": 75.028168766598,
        "status": "Functional"
      },
      {
        "sn": 170,
        "district": "Gurdaspur",
        "name": "CHC Fatehgarh Churian",
        "latitude": 31.8634,
        "longitude": 74.9505,
        "status": "Functional"
      },
      {
        "sn": 171,
        "district": "Gurdaspur",
        "name": "CHC Kalanaur",
        "latitude": 32.0121653145617,
        "longitude": 75.1466131210377,
        "status": "Functional"
      },
      {
        "sn": 172,
        "district": "Gurdaspur",
        "name": "CHC Kahnuwan",
        "latitude": 31.90658,
        "longitude": 75.446115,
        "status": "Functional"
      },
      {
        "sn": 173,
        "district": "Gurdaspur",
        "name": "CHC Bhaini Mia Khan",
        "latitude": 31.880579,
        "longitude": 75.510449,
        "status": "Functional"
      },
      {
        "sn": 174,
        "district": "Gurdaspur",
        "name": "CHC Naushera Majha Singh",
        "latitude": 31.9007566790646,
        "longitude": 75.2840504338726,
        "status": "Functional"
      },
      {
        "sn": 175,
        "district": "Gurdaspur",
        "name": "CHC Dhariwal",
        "latitude": 31.9537,
        "longitude": 75.3151,
        "status": "Functional"
      },
      {
        "sn": 176,
        "district": "Gurdaspur",
        "name": "CHC Kot Santokh Rai",
        "latitude": 31.9517,
        "longitude": 75.2965,
        "status": "Functional"
      },
      {
        "sn": 177,
        "district": "Gurdaspur",
        "name": "CHC Purana Shalla",
        "latitude": 32.041943,
        "longitude": 75.405334,
        "status": "Functional"
      },
      {
        "sn": 178,
        "district": "Gurdaspur",
        "name": "PHC Wadala Bangar",
        "latitude": 31.95495,
        "longitude": 75.15993,
        "status": "Functional"
      },
      {
        "sn": 180,
        "district": "Gurdaspur",
        "name": "PHC Sathoha",
        "latitude": 31.8688613833257,
        "longitude": 75.2855576710859,
        "status": "Functional"
      },
      {
        "sn": 181,
        "district": "Gurdaspur",
        "name": "PHC Ranjit Bagh",
        "latitude": 31.1724,
        "longitude": 75.14993,
        "status": "Functional"
      },
      {
        "sn": 182,
        "district": "Gurdaspur",
        "name": "PHC Behrampur",
        "latitude": 32.100905,
        "longitude": 75.37115,
        "status": "Functional"
      },
      {
        "sn": 183,
        "district": "Gurdaspur",
        "name": "PHC Marara",
        "latitude": 31.71287,
        "longitude": 75.04385,
        "status": "Functional"
      },
      {
        "sn": 184,
        "district": "Gurdaspur",
        "name": "PHC Jharauli",
        "latitude": 32.1169532,
        "longitude": 75.5480421,
        "status": "Functional"
      },
      {
        "sn": 185,
        "district": "Gurdaspur",
        "name": "PHC Dorangla",
        "latitude": 32.0988503,
        "longitude": 75.306968,
        "status": "Functional"
      },
      {
        "sn": 186,
        "district": "Gurdaspur",
        "name": "PHC Jaura Chittron",
        "latitude": 32.01703,
        "longitude": 75.29331,
        "status": "Functional"
      },
      {
        "sn": 187,
        "district": "Gurdaspur",
        "name": "PHC Bhular",
        "latitude": 31.8588498,
        "longitude": 75.2164411,
        "status": "Functional"
      },
      {
        "sn": 188,
        "district": "Gurdaspur",
        "name": "PHC Panj Garaian",
        "latitude": 31.774042,
        "longitude": 75.282257,
        "status": "Functional"
      },
      {
        "sn": 189,
        "district": "Gurdaspur",
        "name": "PHC Wadala Garanthian",
        "latitude": 31.818792,
        "longitude": 75.293167,
        "status": "Functional"
      },
      {
        "sn": 191,
        "district": "Gurdaspur",
        "name": "UPHC 1/ UPHC Batala",
        "latitude": 31.8285809316832,
        "longitude": 75.211842953096,
        "status": "Functional"
      },
      {
        "sn": 192,
        "district": "Gurdaspur",
        "name": "UPHC Chander Nagar",
        "latitude": 31.82628,
        "longitude": 75.20278,
        "status": "Functional"
      },
      {
        "sn": 193,
        "district": "Gurdaspur",
        "name": "UPHC Maan Kaur Singh",
        "latitude": 32.04078,
        "longitude": 75.42798,
        "status": "Functional"
      },
      {
        "sn": 194,
        "district": "Gurdaspur",
        "name": "Rangar Nangal",
        "latitude": 31.719643,
        "longitude": 75.242463,
        "status": "Functional"
      },
      {
        "sn": 195,
        "district": "Gurdaspur",
        "name": "PHC Gill Manj",
        "latitude": 31.882582,
        "longitude": 75.375481,
        "status": "Functional"
      },
      {
        "sn": 196,
        "district": "Gurdaspur",
        "name": "PHC Shri Hargobind Pur",
        "latitude": 31.682137,
        "longitude": 75.472548,
        "status": "Functional"
      }
    ],
    "Hoshiarpur": [
      {
        "sn": 197,
        "district": "Hoshiarpur",
        "name": "DDRC, Mohalla Fatehgarh, Hoshiarpur",
        "latitude": 31.52209,
        "longitude": 75.9122,
        "status": "Functional"
      },
      {
        "sn": 198,
        "district": "Hoshiarpur",
        "name": "Central Jail, Hoshiarpur",
        "latitude": 31.527355,
        "longitude": 75.913673,
        "status": "Functional"
      },
      {
        "sn": 199,
        "district": "Hoshiarpur",
        "name": "SDH Garhshankar",
        "latitude": 31.21344,
        "longitude": 76.15054,
        "status": "Functional"
      },
      {
        "sn": 200,
        "district": "Hoshiarpur",
        "name": "SDH Mukerian",
        "latitude": 31.9502,
        "longitude": 75.6133,
        "status": "Functional"
      },
      {
        "sn": 201,
        "district": "Hoshiarpur",
        "name": "SDH Dasuya",
        "latitude": 31.8076,
        "longitude": 75.6663,
        "status": "Functional"
      },
      {
        "sn": 202,
        "district": "Hoshiarpur",
        "name": "CHC Mahalpur",
        "latitude": 31.363,
        "longitude": 76.038,
        "status": "Functional"
      },
      {
        "sn": 203,
        "district": "Hoshiarpur",
        "name": "CHC Tanda",
        "latitude": 31.6758,
        "longitude": 75.6349,
        "status": "Functional"
      },
      {
        "sn": 204,
        "district": "Hoshiarpur",
        "name": "CHC Sham Churasi",
        "latitude": 31.4997,
        "longitude": 75.7494,
        "status": "Functional"
      },
      {
        "sn": 205,
        "district": "Hoshiarpur",
        "name": "CHC Hazipur",
        "latitude": 31.98,
        "longitude": 75.76,
        "status": "Functional"
      },
      {
        "sn": 206,
        "district": "Hoshiarpur",
        "name": "CHC Budhabar",
        "latitude": 31.95414,
        "longitude": 75.7535,
        "status": "Functional"
      },
      {
        "sn": 207,
        "district": "Hoshiarpur",
        "name": "CHC Bhunga",
        "latitude": 31.52735,
        "longitude": 75.91367,
        "status": "Functional"
      },
      {
        "sn": 208,
        "district": "Hoshiarpur",
        "name": "CHC Harta Badla",
        "latitude": 31.527355,
        "longitude": 75.913673,
        "status": "Functional"
      },
      {
        "sn": 209,
        "district": "Hoshiarpur",
        "name": "CHC Bhol Kalota",
        "latitude": 31.8851,
        "longitude": 75.92469,
        "status": "Functional"
      },
      {
        "sn": 210,
        "district": "Hoshiarpur",
        "name": "CHC Kamahi Devi",
        "latitude": 31.57325,
        "longitude": 75.8915,
        "status": "Functional"
      },
      {
        "sn": 211,
        "district": "Hoshiarpur",
        "name": "CHC Mand Mandher",
        "latitude": 31.77555,
        "longitude": 75.7376,
        "status": "Functional"
      },
      {
        "sn": 212,
        "district": "Hoshiarpur",
        "name": "CHC Hariana",
        "latitude": 31.6364,
        "longitude": 75.8419,
        "status": "Functional"
      },
      {
        "sn": 213,
        "district": "Hoshiarpur",
        "name": "CHC Binewal",
        "latitude": 31.2815,
        "longitude": 76.2596,
        "status": "Functional"
      },
      {
        "sn": 214,
        "district": "Hoshiarpur",
        "name": "PHC Khunkhun Kalan",
        "latitude": 31.7428716061102,
        "longitude": 75.6775832377476,
        "status": "Functional"
      },
      {
        "sn": 215,
        "district": "Hoshiarpur",
        "name": "PHC Bhangela",
        "latitude": 32.0169205383896,
        "longitude": 75.6135524751151,
        "status": "Functional"
      },
      {
        "sn": 216,
        "district": "Hoshiarpur",
        "name": "PHC Phuglana",
        "latitude": 31.3897939923385,
        "longitude": 75.8325737474319,
        "status": "Functional"
      },
      {
        "sn": 217,
        "district": "Hoshiarpur",
        "name": "PHC Paldi",
        "latitude": 31.3274341908838,
        "longitude": 75.9970176039466,
        "status": "Functional"
      },
      {
        "sn": 218,
        "district": "Hoshiarpur",
        "name": "PHC Jejon",
        "latitude": 31.3478495564061,
        "longitude": 76.146296564528,
        "status": "Functional"
      },
      {
        "sn": 219,
        "district": "Hoshiarpur",
        "name": "PHC  Possi",
        "latitude": 31.2673754216712,
        "longitude": 76.0518865772561,
        "status": "Functional"
      },
      {
        "sn": 220,
        "district": "Hoshiarpur",
        "name": "PHC  Rampura Bilron",
        "latitude": 31.2716841187163,
        "longitude": 76.1329386985791,
        "status": "Functional"
      },
      {
        "sn": 221,
        "district": "Hoshiarpur",
        "name": "PHC  Binjon",
        "latitude": 31.2712275913228,
        "longitude": 76.0014122124025,
        "status": "Functional"
      },
      {
        "sn": 222,
        "district": "Hoshiarpur",
        "name": "PHC Janauri",
        "latitude": 31.7134899438757,
        "longitude": 75.8935579017475,
        "status": "Functional"
      },
      {
        "sn": 223,
        "district": "Hoshiarpur",
        "name": "PHC Badla",
        "latitude": 31.4012975001995,
        "longitude": 75.9101302438667,
        "status": "Functional"
      },
      {
        "sn": 224,
        "district": "Hoshiarpur",
        "name": "UPHC Islamabad",
        "latitude": 31.51687,
        "longitude": 75.9306,
        "status": "Functional"
      },
      {
        "sn": 226,
        "district": "Hoshiarpur",
        "name": "PHC Chaukowal",
        "latitude": 31.550774603218,
        "longitude": 75.7863510070495,
        "status": "Functional"
      }
    ],
    "Jalandhar": [
      {
        "sn": 227,
        "district": "Jalandhar",
        "name": "Drug Rehabilitation Centre, Village Shekha, Jalandhar",
        "latitude": 31.3566214044894,
        "longitude": 75.614918737249,
        "status": "Functional"
      },
      {
        "sn": 228,
        "district": "Jalandhar",
        "name": "SDH Phillaur",
        "latitude": 31.0217464720565,
        "longitude": 75.7900553121313,
        "status": "Functional"
      },
      {
        "sn": 229,
        "district": "Jalandhar",
        "name": "SDH Nakodar",
        "latitude": 31.1281533188056,
        "longitude": 75.4760957023439,
        "status": "Functional"
      },
      {
        "sn": 230,
        "district": "Jalandhar",
        "name": "CHC Adampur",
        "latitude": 31.4302496314307,
        "longitude": 75.7156300526201,
        "status": "Functional"
      },
      {
        "sn": 231,
        "district": "Jalandhar",
        "name": "CHC Apra",
        "latitude": 31.0867725589649,
        "longitude": 75.87829394282,
        "status": "Functional"
      },
      {
        "sn": 232,
        "district": "Jalandhar",
        "name": "CHC Bara Pind",
        "latitude": 31.0882268430749,
        "longitude": 75.885878422096,
        "status": "Functional"
      },
      {
        "sn": 233,
        "district": "Jalandhar",
        "name": "CHC Noor Mahal",
        "latitude": 31.1034213758255,
        "longitude": 75.5935343176179,
        "status": "Functional"
      },
      {
        "sn": 234,
        "district": "Jalandhar",
        "name": "CHC Bundala",
        "latitude": 31.1424288619997,
        "longitude": 75.6635820888518,
        "status": "Functional"
      },
      {
        "sn": 235,
        "district": "Jalandhar",
        "name": "CHC Kala Bakra",
        "latitude": 31.4766222773387,
        "longitude": 75.6297449042048,
        "status": "Functional"
      },
      {
        "sn": 236,
        "district": "Jalandhar",
        "name": "CHC Kartarpur",
        "latitude": 31.263365,
        "longitude": 75.295449,
        "status": "Functional"
      },
      {
        "sn": 237,
        "district": "Jalandhar",
        "name": "CHC Shankar",
        "latitude": 31.1497144555667,
        "longitude": 75.5345915055413,
        "status": "Functional"
      },
      {
        "sn": 238,
        "district": "Jalandhar",
        "name": "CHC Lohian",
        "latitude": 31.1570047500116,
        "longitude": 75.2129244652786,
        "status": "Functional"
      },
      {
        "sn": 239,
        "district": "Jalandhar",
        "name": "CHC Shahkot",
        "latitude": 31.0811281459713,
        "longitude": 75.3365674864636,
        "status": "Functional"
      },
      {
        "sn": 240,
        "district": "Jalandhar",
        "name": "CHC PAP",
        "latitude": 31.3118637673291,
        "longitude": 75.6177984348146,
        "status": "Non-Functional"
      },
      {
        "sn": 241,
        "district": "Jalandhar",
        "name": "CHC Basti Gunjan",
        "latitude": 31.3211501193868,
        "longitude": 75.5520277652387,
        "status": "Functional"
      },
      {
        "sn": 242,
        "district": "Jalandhar",
        "name": "DH Jalandhar",
        "latitude": 31.326343292509,
        "longitude": 75.5730448967966,
        "status": "Functional"
      },
      {
        "sn": 243,
        "district": "Jalandhar",
        "name": "PHC Buttran",
        "latitude": 31.5474691838463,
        "longitude": 75.5813782329726,
        "status": "Non-Functional"
      },
      {
        "sn": 245,
        "district": "Jalandhar",
        "name": "PHC Chitti",
        "latitude": 31.2361531116764,
        "longitude": 75.4771822961261,
        "status": "Functional"
      },
      {
        "sn": 246,
        "district": "Jalandhar",
        "name": "PHC Dosanjh Kalan",
        "latitude": 31.1662677205264,
        "longitude": 75.8392657752907,
        "status": "Non-Functional"
      },
      {
        "sn": 247,
        "district": "Jalandhar",
        "name": "PHC Bilga",
        "latitude": 31.0565726909012,
        "longitude": 75.6581552692916,
        "status": "Functional"
      },
      {
        "sn": 248,
        "district": "Jalandhar",
        "name": "PHC Kot Badal Khan",
        "latitude": 31.0206460698772,
        "longitude": 75.6205851042946,
        "status": "Functional"
      },
      {
        "sn": 249,
        "district": "Jalandhar",
        "name": "PHC Jamsher Khas",
        "latitude": 31.234394270257,
        "longitude": 75.6219726292664,
        "status": "Functional"
      },
      {
        "sn": 250,
        "district": "Jalandhar",
        "name": "PHC Jandiala",
        "latitude": 31.2344676600266,
        "longitude": 75.6225841728913,
        "status": "Functional"
      },
      {
        "sn": 251,
        "district": "Jalandhar",
        "name": "PHC Mehatpur",
        "latitude": 31.0457656623953,
        "longitude": 75.4765221213137,
        "status": "Functional"
      },
      {
        "sn": 254,
        "district": "Jalandhar",
        "name": "UPHC Dhanowali",
        "latitude": 31.3051596384251,
        "longitude": 75.6549213431279,
        "status": "Non-Functional"
      },
      {
        "sn": 255,
        "district": "Jalandhar",
        "name": "UPHC Garha",
        "latitude": 31.2966711279482,
        "longitude": 75.5987624176234,
        "status": "Functional"
      },
      {
        "sn": 256,
        "district": "Jalandhar",
        "name": "UPHC Kazi Mandi",
        "latitude": 31.33461,
        "longitude": 75.5879,
        "status": "Functional"
      },
      {
        "sn": 257,
        "district": "Jalandhar",
        "name": "UPHC Maqsudan",
        "latitude": 31.36011,
        "longitude": 75.55335,
        "status": "Functional"
      },
      {
        "sn": 258,
        "district": "Jalandhar",
        "name": "UPHC Basti Bawa Khel",
        "latitude": 31.3406451776734,
        "longitude": 75.5475493114723,
        "status": "Functional"
      },
      {
        "sn": 259,
        "district": "Jalandhar",
        "name": "UPHC Basti Danish Manda",
        "latitude": 31.31861,
        "longitude": 75.54248,
        "status": "Functional"
      },
      {
        "sn": 260,
        "district": "Jalandhar",
        "name": "UPHC Basti Nao",
        "latitude": 31.3204779123501,
        "longitude": 75.5488371758249,
        "status": "Non-Functional"
      },
      {
        "sn": 261,
        "district": "Jalandhar",
        "name": "UPHC Bhargo Camp",
        "latitude": 31.31371,
        "longitude": 75.56552,
        "status": "Functional"
      },
      {
        "sn": 262,
        "district": "Jalandhar",
        "name": "PHC Rupewali",
        "latitude": 31.1496381199512,
        "longitude": 75.3053636848952,
        "status": "Non-Functional"
      },
      {
        "sn": 263,
        "district": "Jalandhar",
        "name": "UCHC Khurla Kingra",
        "latitude": 31.2949740053647,
        "longitude": 75.5547457270127,
        "status": "Functional"
      },
      {
        "sn": 264,
        "district": "Jalandhar",
        "name": "UCHC Dada Colony",
        "latitude": 31.3554902573969,
        "longitude": 75.5757772703394,
        "status": "Functional"
      }
    ],
    "Kapurthala": [
      {
        "sn": 265,
        "district": "Kapurthala",
        "name": "Drug Rehabilitation Centre, DH Kapurthala",
        "latitude": 31.3757623836101,
        "longitude": 75.3820129057133,
        "status": "Functional"
      },
      {
        "sn": 266,
        "district": "Kapurthala",
        "name": "Central Jail, Kapurthala",
        "latitude": 31.4360606938518,
        "longitude": 75.3433111819128,
        "status": "Functional"
      },
      {
        "sn": 267,
        "district": "Kapurthala",
        "name": "SDH Phagwara",
        "latitude": 31.2306358469839,
        "longitude": 75.7637814840941,
        "status": "Functional"
      },
      {
        "sn": 268,
        "district": "Kapurthala",
        "name": "SDH Sultanpur Lodhi",
        "latitude": 31.2182223362392,
        "longitude": 75.1924602026588,
        "status": "Functional"
      },
      {
        "sn": 269,
        "district": "Kapurthala",
        "name": "SDH Bholath",
        "latitude": 31.5397415821785,
        "longitude": 75.5075198346573,
        "status": "Functional"
      },
      {
        "sn": 270,
        "district": "Kapurthala",
        "name": "PHC Kala Sanghia",
        "latitude": 31.2616977873608,
        "longitude": 75.4451868653978,
        "status": "Functional"
      },
      {
        "sn": 271,
        "district": "Kapurthala",
        "name": "CHC Tibba",
        "latitude": 31.3105650331134,
        "longitude": 75.2139365435618,
        "status": "Functional"
      },
      {
        "sn": 272,
        "district": "Kapurthala",
        "name": "CHC Fattu Dhinga",
        "latitude": 31.3737482000692,
        "longitude": 75.2257261070409,
        "status": "Functional"
      },
      {
        "sn": 273,
        "district": "Kapurthala",
        "name": "CHC Panchhat",
        "latitude": 31.3354778606504,
        "longitude": 75.8651256242357,
        "status": "Functional"
      },
      {
        "sn": 274,
        "district": "Kapurthala",
        "name": "CHC Begowal",
        "latitude": 31.6095893617508,
        "longitude": 75.5163400126098,
        "status": "Functional"
      },
      {
        "sn": 276,
        "district": "Kapurthala",
        "name": "PHC Dhilwan",
        "latitude": 31.51226,
        "longitude": 75.34484,
        "status": "Functional"
      },
      {
        "sn": 278,
        "district": "Kapurthala",
        "name": "UPHC Araika Mohalla",
        "latitude": 31.3786228048374,
        "longitude": 75.3728695244118,
        "status": "Functional"
      },
      {
        "sn": 279,
        "district": "Kapurthala",
        "name": "UPHC Hadiabad",
        "latitude": 31.2205944965675,
        "longitude": 75.7464032240791,
        "status": "Functional"
      }
    ],
    "Ludhiana": [
      {
        "sn": 280,
        "district": "Ludhiana",
        "name": "Central Jail, Ludhiana",
        "latitude": 30.91663,
        "longitude": 75.90951,
        "status": "Functional"
      },
      {
        "sn": 281,
        "district": "Ludhiana",
        "name": "SDH Samrala",
        "latitude": 30.839851,
        "longitude": 76.186875,
        "status": "Functional"
      },
      {
        "sn": 282,
        "district": "Ludhiana",
        "name": "SDH Khanna",
        "latitude": 30.703232,
        "longitude": 76.223076,
        "status": "Functional"
      },
      {
        "sn": 283,
        "district": "Ludhiana",
        "name": "SDH Raikot",
        "latitude": 30.65,
        "longitude": 75.6,
        "status": "Functional"
      },
      {
        "sn": 284,
        "district": "Ludhiana",
        "name": "Drug Rehabilitation Centre, Jagraon, Ludhiana",
        "latitude": 30.797416,
        "longitude": 75.475386,
        "status": "Functional"
      },
      {
        "sn": 285,
        "district": "Ludhiana",
        "name": "CHC Gur Sar Sudhar",
        "latitude": 30.4628,
        "longitude": 75.385767,
        "status": "Functional"
      },
      {
        "sn": 286,
        "district": "Ludhiana",
        "name": "CHC Hathur",
        "latitude": 30.6007,
        "longitude": 75.4295,
        "status": "Functional"
      },
      {
        "sn": 287,
        "district": "Ludhiana",
        "name": "CHC Kum Kalan",
        "latitude": 30.89107,
        "longitude": 75.87729,
        "status": "Functional"
      },
      {
        "sn": 288,
        "district": "Ludhiana",
        "name": "CHC Machhiwara",
        "latitude": 30.9126912569558,
        "longitude": 76.1959770607821,
        "status": "Functional"
      },
      {
        "sn": 289,
        "district": "Ludhiana",
        "name": "CHC Dehlon",
        "latitude": 30.9004,
        "longitude": 75.8513,
        "status": "Functional"
      },
      {
        "sn": 290,
        "district": "Ludhiana",
        "name": "CHC Malaud",
        "latitude": 30.634831,
        "longitude": 75.937013,
        "status": "Functional"
      },
      {
        "sn": 291,
        "district": "Ludhiana",
        "name": "CHC Manupur",
        "latitude": 30.7553217760686,
        "longitude": 76.270553680797,
        "status": "Functional"
      },
      {
        "sn": 292,
        "district": "Ludhiana",
        "name": "CHC Pakhowal",
        "latitude": 30.714176,
        "longitude": 75.71333,
        "status": "Functional"
      },
      {
        "sn": 293,
        "district": "Ludhiana",
        "name": "CHC Payal",
        "latitude": 30.724362063744,
        "longitude": 76.0620392911403,
        "status": "Functional"
      },
      {
        "sn": 294,
        "district": "Ludhiana",
        "name": "CHC Sahnewal",
        "latitude": 30.840752062326,
        "longitude": 75.9794480818837,
        "status": "Functional"
      },
      {
        "sn": 295,
        "district": "Ludhiana",
        "name": "CHC Sidhwan Bet",
        "latitude": 30.9295,
        "longitude": 75.4723,
        "status": "Functional"
      },
      {
        "sn": 296,
        "district": "Ludhiana",
        "name": "DH Ludhiana",
        "latitude": 30.9065513481678,
        "longitude": 75.8597252721,
        "status": "Functional"
      },
      {
        "sn": 297,
        "district": "Ludhiana",
        "name": "PHC Rampur/Rampur Dhoraha",
        "latitude": 30.8187775893513,
        "longitude": 76.0502884075177,
        "status": "Functional"
      },
      {
        "sn": 298,
        "district": "Ludhiana",
        "name": "PHC Mandiala Kalan",
        "latitude": 30.896429463701,
        "longitude": 75.9312236309106,
        "status": "Non-Functional"
      },
      {
        "sn": 299,
        "district": "Ludhiana",
        "name": "PHC Katani Kalan",
        "latitude": 30.849131,
        "longitude": 76.081116,
        "status": "Functional"
      },
      {
        "sn": 300,
        "district": "Ludhiana",
        "name": "PHC Ghwadi",
        "latitude": 30.78282,
        "longitude": 75.89448,
        "status": "Functional"
      },
      {
        "sn": 301,
        "district": "Ludhiana",
        "name": "PHC Kalakh",
        "latitude": 30.7159230765087,
        "longitude": 75.8232095639723,
        "status": "Functional"
      },
      {
        "sn": 303,
        "district": "Ludhiana",
        "name": "PHC Talwandi Kalan",
        "latitude": 30.8511331750561,
        "longitude": 75.5912535795277,
        "status": "Functional"
      },
      {
        "sn": 304,
        "district": "Ludhiana",
        "name": "PHC Sabadi Kalan",
        "latitude": 30.8678,
        "longitude": 75.5844,
        "status": "Functional"
      },
      {
        "sn": 305,
        "district": "Ludhiana",
        "name": "PHC Mohi",
        "latitude": 30.804729,
        "longitude": 75.683273,
        "status": "Functional"
      },
      {
        "sn": 306,
        "district": "Ludhiana",
        "name": "PHC Bhanohar",
        "latitude": 30.8488987,
        "longitude": 75.7062077,
        "status": "Non-Functional"
      },
      {
        "sn": 307,
        "district": "Ludhiana",
        "name": "PHC Mullanpur",
        "latitude": 30.8464119121119,
        "longitude": 75.6741873595902,
        "status": "Functional"
      },
      {
        "sn": 308,
        "district": "Ludhiana",
        "name": "PHC Ladowal",
        "latitude": 30.9794,
        "longitude": 75.7926,
        "status": "Functional"
      },
      {
        "sn": 309,
        "district": "Ludhiana",
        "name": "PHC Chowkiman",
        "latitude": 30.8133349381548,
        "longitude": 75.5634617616478,
        "status": "Functional"
      },
      {
        "sn": 310,
        "district": "Ludhiana",
        "name": "PHC Mehdoodan",
        "latitude": 30.80648,
        "longitude": 76.09553,
        "status": "Functional"
      },
      {
        "sn": 311,
        "district": "Ludhiana",
        "name": "PHC Manuke",
        "latitude": 30.67142,
        "longitude": 75.45901,
        "status": "Functional"
      },
      {
        "sn": 312,
        "district": "Ludhiana",
        "name": "PHC KAUNKEKALAN",
        "latitude": 30.7759887976237,
        "longitude": 75.3559058547511,
        "status": "Unknown"
      },
      {
        "sn": 313,
        "district": "Ludhiana",
        "name": "UPHC Jagraon",
        "latitude": 30.8123060792036,
        "longitude": 75.4799339175281,
        "status": "Non-Functional"
      },
      {
        "sn": 314,
        "district": "Ludhiana",
        "name": "UPHC Lady Hospital",
        "latitude": 30.7075744709859,
        "longitude": 76.215664203365,
        "status": "Non-Functional"
      },
      {
        "sn": 315,
        "district": "Ludhiana",
        "name": "UPHC MT Khanna",
        "latitude": 30.704135682274,
        "longitude": 76.2300069715101,
        "status": "Non-Functional"
      },
      {
        "sn": 316,
        "district": "Ludhiana",
        "name": "UPHC Abdullapur Basti",
        "latitude": 30.8963,
        "longitude": 75.85235,
        "status": "Functional"
      },
      {
        "sn": 317,
        "district": "Ludhiana",
        "name": "UPHC Dholewal",
        "latitude": 30.89191,
        "longitude": 75.86924,
        "status": "Functional"
      },
      {
        "sn": 318,
        "district": "Ludhiana",
        "name": "UPHC Pratap Nagar Tibba Road",
        "latitude": 30.9501240806902,
        "longitude": 75.8494457974565,
        "status": "Non-Functional"
      },
      {
        "sn": 319,
        "district": "Ludhiana",
        "name": "UPHC Sabzi Mandi",
        "latitude": 30.94455,
        "longitude": 75.85035,
        "status": "Functional"
      },
      {
        "sn": 320,
        "district": "Ludhiana",
        "name": "UPHC Salem Tabri",
        "latitude": 30.933508,
        "longitude": 75.83856,
        "status": "Functional"
      },
      {
        "sn": 322,
        "district": "Ludhiana",
        "name": "UPHC Bhagwan Nagar",
        "latitude": 30.88915,
        "longitude": 75.87451,
        "status": "Functional"
      },
      {
        "sn": 323,
        "district": "Ludhiana",
        "name": "UPHC Dugri",
        "latitude": 30.8724,
        "longitude": 75.8454,
        "status": "Functional"
      },
      {
        "sn": 325,
        "district": "Ludhiana",
        "name": "UPHC Janta Nagar",
        "latitude": 30.87912,
        "longitude": 75.865805,
        "status": "Non-Functional"
      },
      {
        "sn": 326,
        "district": "Ludhiana",
        "name": "UPHC Model Town",
        "latitude": 30.8077,
        "longitude": 75.6756,
        "status": "Functional"
      },
      {
        "sn": 327,
        "district": "Ludhiana",
        "name": "UPHC Muradpura",
        "latitude": 30.894383,
        "longitude": 75.8554402,
        "status": "Functional"
      },
      {
        "sn": 328,
        "district": "Ludhiana",
        "name": "UPHC Sunet",
        "latitude": 30.88332,
        "longitude": 75.79813,
        "status": "Non-Functional"
      },
      {
        "sn": 329,
        "district": "Ludhiana",
        "name": "UPHC Subhash Nagar Chandarlok Colony",
        "latitude": 30.934948,
        "longitude": 75.883985,
        "status": "Functional"
      },
      {
        "sn": 330,
        "district": "Ludhiana",
        "name": "UPHC In existing Civil Surgeon Complex",
        "latitude": 30.8662,
        "longitude": 75.8599,
        "status": "Functional"
      },
      {
        "sn": 331,
        "district": "Ludhiana",
        "name": "UPHC In samaj Bhalai Complex Simlapuri",
        "latitude": 30.8664677897145,
        "longitude": 75.8598704198623,
        "status": "Functional"
      },
      {
        "sn": 332,
        "district": "Ludhiana",
        "name": "UPHC New CHC at Gyaspura (shifted from punjab Agro Complex near Jalandhar Byepass)",
        "latitude": 30.8594833003844,
        "longitude": 75.8910038459023,
        "status": "Non-Functional"
      },
      {
        "sn": 333,
        "district": "Ludhiana",
        "name": "UPHC Jawadhi Ludhiana",
        "latitude": 30.8833,
        "longitude": 75.83,
        "status": "Functional"
      },
      {
        "sn": 334,
        "district": "Ludhiana",
        "name": "UCHC Vardhman",
        "latitude": 30.9112437,
        "longitude": 75.8910321,
        "status": "Functional"
      },
      {
        "sn": 335,
        "district": "Ludhiana",
        "name": "Borstal District Jail Ludhiana",
        "latitude": 31.198668,
        "longitude": 76.154465,
        "status": "Functional"
      }
    ],
    "Mansa": [
      {
        "sn": 336,
        "district": "Mansa",
        "name": "Drug Rehabilitation Centre, Thuthian Wali Road, Mansa",
        "latitude": 30.00276,
        "longitude": 75.23218,
        "status": "Functional"
      },
      {
        "sn": 337,
        "district": "Mansa",
        "name": "SDH Sardulgarh",
        "latitude": 29.691221,
        "longitude": 75.237988,
        "status": "Functional"
      },
      {
        "sn": 338,
        "district": "Mansa",
        "name": "SDH Budhlada",
        "latitude": 29.925424,
        "longitude": 75.558022,
        "status": "Functional"
      },
      {
        "sn": 339,
        "district": "Mansa",
        "name": "CHC Bhikhi",
        "latitude": 30.058009,
        "longitude": 75.538017,
        "status": "Functional"
      },
      {
        "sn": 340,
        "district": "Mansa",
        "name": "CHC Bareta",
        "latitude": 29.861559,
        "longitude": 75.69495,
        "status": "Functional"
      },
      {
        "sn": 341,
        "district": "Mansa",
        "name": "CHC Junir",
        "latitude": 29.806712,
        "longitude": 75.345212,
        "status": "Functional"
      },
      {
        "sn": 342,
        "district": "Mansa",
        "name": "CHC Khiala Kalan",
        "latitude": 30.040152,
        "longitude": 75.431743,
        "status": "Functional"
      },
      {
        "sn": 343,
        "district": "Mansa",
        "name": "District Jail Mansa",
        "latitude": 30.065678,
        "longitude": 75.404854,
        "status": "Functional"
      },
      {
        "sn": 344,
        "district": "Mansa",
        "name": "PHC Nangal Kalan",
        "latitude": 29.925947,
        "longitude": 75.391614,
        "status": "Functional"
      },
      {
        "sn": 345,
        "district": "Mansa",
        "name": "PHC Dhaipai",
        "latitude": 30.762092,
        "longitude": 75.714986,
        "status": "Functional"
      },
      {
        "sn": 346,
        "district": "Mansa",
        "name": "PHC Joga",
        "latitude": 30.159352,
        "longitude": 75.420991,
        "status": "Functional"
      },
      {
        "sn": 348,
        "district": "Mansa",
        "name": "PHC Boha",
        "latitude": 29.830445,
        "longitude": 75.526362,
        "status": "Functional"
      },
      {
        "sn": 349,
        "district": "Mansa",
        "name": "PHC Birke Kalan",
        "latitude": 29.9950718437193,
        "longitude": 75.5922118972564,
        "status": "Non-Functional"
      },
      {
        "sn": 350,
        "district": "Mansa",
        "name": "PHC Kularian",
        "latitude": 29.802581,
        "longitude": 75.681039,
        "status": "Functional"
      }
    ],
    "Moga": [
      {
        "sn": 351,
        "district": "Moga",
        "name": "DDRC, Village Janer, Moga",
        "latitude": 29.9856017827973,
        "longitude": 75.4027969814796,
        "status": "Functional"
      },
      {
        "sn": 352,
        "district": "Moga",
        "name": "CHC Dhudike",
        "latitude": 30.775014,
        "longitude": 75.3527449,
        "status": "Functional"
      },
      {
        "sn": 353,
        "district": "Moga",
        "name": "CHC Nihal Singh Wala",
        "latitude": 30.5930285,
        "longitude": 75.2791739,
        "status": "Functional"
      },
      {
        "sn": 354,
        "district": "Moga",
        "name": "CHC Kot Isse Khan",
        "latitude": 30.9439332,
        "longitude": 75.14245,
        "status": "Functional"
      },
      {
        "sn": 355,
        "district": "Moga",
        "name": "CHC Bagha Purana",
        "latitude": 30.6884,
        "longitude": 75.0853,
        "status": "Functional"
      },
      {
        "sn": 356,
        "district": "Moga",
        "name": "CHC Daroli Bhai",
        "latitude": 30.807403,
        "longitude": 75.0457181,
        "status": "Functional"
      },
      {
        "sn": 357,
        "district": "Moga",
        "name": "CHC Badhani Kalan",
        "latitude": 30.68715,
        "longitude": 75.3063,
        "status": "Functional"
      },
      {
        "sn": 358,
        "district": "Moga",
        "name": "PHC Khokri Kalan",
        "latitude": 30.842055,
        "longitude": 75.331786,
        "status": "Functional"
      },
      {
        "sn": 359,
        "district": "Moga",
        "name": "PHC Patto Hira Singh",
        "latitude": 30.5937,
        "longitude": 75.2392,
        "status": "Functional"
      },
      {
        "sn": 360,
        "district": "Moga",
        "name": "PHC PHC Fatehgarh Panj Toor",
        "latitude": 31.053486,
        "longitude": 75.112793,
        "status": "Functional"
      },
      {
        "sn": 361,
        "district": "Moga",
        "name": "PHC Jalalabad East",
        "latitude": 30.605830450504,
        "longitude": 74.2559921998268,
        "status": "Functional"
      },
      {
        "sn": 362,
        "district": "Moga",
        "name": "PHC Kishan Pur Kalan",
        "latitude": 30.9282346540147,
        "longitude": 75.3501299040525,
        "status": "Functional"
      },
      {
        "sn": 363,
        "district": "Moga",
        "name": "PHC Thathi Bhai",
        "latitude": 30.3583021,
        "longitude": 75.6469824,
        "status": "Functional"
      },
      {
        "sn": 364,
        "district": "Moga",
        "name": "PHC Daulat Pur Niwana",
        "latitude": 30.876884,
        "longitude": 75.02555,
        "status": "Functional"
      },
      {
        "sn": 365,
        "district": "Moga",
        "name": "PHC Chand Niwana",
        "latitude": 30.75585,
        "longitude": 75.0873956,
        "status": "Functional"
      },
      {
        "sn": 366,
        "district": "Moga",
        "name": "UPHC Bagiana Basti",
        "latitude": 30.809231,
        "longitude": 75.156982,
        "status": "Functional"
      },
      {
        "sn": 367,
        "district": "Moga",
        "name": "UPHC Duneke",
        "latitude": 30.8267363,
        "longitude": 75.1435936,
        "status": "Functional"
      },
      {
        "sn": 368,
        "district": "Moga",
        "name": "CH Moga",
        "latitude": 30.811335,
        "longitude": 75.169579,
        "status": "Functional"
      }
    ],
    "Muktsar": [
      {
        "sn": 369,
        "district": "Muktsar",
        "name": "Drug Rehabilitation Centre, Muktsar",
        "latitude": 30.46277,
        "longitude": 74.53521,
        "status": "Functional"
      },
      {
        "sn": 370,
        "district": "Muktsar",
        "name": "SDH Badal",
        "latitude": 30.0761,
        "longitude": 74.6664,
        "status": "Functional"
      },
      {
        "sn": 371,
        "district": "Muktsar",
        "name": "Village Theri, SDH Malout",
        "latitude": 30.18677,
        "longitude": 74.4956,
        "status": "Functional"
      },
      {
        "sn": 372,
        "district": "Muktsar",
        "name": "SDH Gidderbaha",
        "latitude": 30.216209,
        "longitude": 74.646911,
        "status": "Functional"
      },
      {
        "sn": 373,
        "district": "Muktsar",
        "name": "CHC Sarawa Bhodla",
        "latitude": 30.3,
        "longitude": 74.43,
        "status": "Functional"
      },
      {
        "sn": 374,
        "district": "Muktsar",
        "name": "CHC Chak Sherewala",
        "latitude": 30.3848,
        "longitude": 74.3793,
        "status": "Functional"
      },
      {
        "sn": 375,
        "district": "Muktsar",
        "name": "CHC Bariwala",
        "latitude": 30.5379,
        "longitude": 74.6525,
        "status": "Functional"
      },
      {
        "sn": 376,
        "district": "Muktsar",
        "name": "CHC Doda",
        "latitude": 30.3832162267065,
        "longitude": 74.631175729747,
        "status": "Functional"
      },
      {
        "sn": 377,
        "district": "Muktsar",
        "name": "CHC Lambi",
        "latitude": 30.0578,
        "longitude": 74.6078,
        "status": "Functional"
      },
      {
        "sn": 378,
        "district": "Muktsar",
        "name": "District Jail, Muktsar",
        "latitude": 30.4798,
        "longitude": 74.5325,
        "status": "Functional"
      },
      {
        "sn": 379,
        "district": "Muktsar",
        "name": "PHC Kanian Wali",
        "latitude": 30.6968,
        "longitude": 74.4811,
        "status": "Functional"
      },
      {
        "sn": 380,
        "district": "Muktsar",
        "name": "PHC Balam Garh",
        "latitude": 30.3388,
        "longitude": 74.3206,
        "status": "Functional"
      },
      {
        "sn": 381,
        "district": "Muktsar",
        "name": "PHC HariKe Kalan",
        "latitude": 30.4806,
        "longitude": 74.7074,
        "status": "Functional"
      },
      {
        "sn": 382,
        "district": "Muktsar",
        "name": "PHC Singhe Wala",
        "latitude": 30.02127,
        "longitude": 74.69127,
        "status": "Functional"
      },
      {
        "sn": 383,
        "district": "Muktsar",
        "name": "PHC Kandu Khera",
        "latitude": 29.9482,
        "longitude": 74.5038,
        "status": "Functional"
      },
      {
        "sn": 384,
        "district": "Muktsar",
        "name": "PHC Mahuana",
        "latitude": 29.988,
        "longitude": 75.379,
        "status": "Functional"
      },
      {
        "sn": 385,
        "district": "Muktsar",
        "name": "PHC Alamwala",
        "latitude": 30.2677,
        "longitude": 74.4218,
        "status": "Functional"
      },
      {
        "sn": 386,
        "district": "Muktsar",
        "name": "UPHC 1 Malout",
        "latitude": 30.19318,
        "longitude": 74.50679,
        "status": "Functional"
      },
      {
        "sn": 387,
        "district": "Muktsar",
        "name": "UPHC 1 Muktsar",
        "latitude": 30.47781,
        "longitude": 74.52066,
        "status": "Functional"
      }
    ],
    "Pathankot": [
      {
        "sn": 388,
        "district": "Pathankot",
        "name": "DH Pathankot",
        "latitude": 32.2822,
        "longitude": 75.6533,
        "status": "Functional"
      },
      {
        "sn": 389,
        "district": "Pathankot",
        "name": "CHC Narot Jaimal Singh",
        "latitude": 32.2944,
        "longitude": 75.457,
        "status": "Functional"
      },
      {
        "sn": 390,
        "district": "Pathankot",
        "name": "CHC Gharota",
        "latitude": 32.1486572365132,
        "longitude": 75.5755933512596,
        "status": "Functional"
      },
      {
        "sn": 391,
        "district": "Pathankot",
        "name": "CHC Sujanpur",
        "latitude": 32.3126617840757,
        "longitude": 75.6083459705065,
        "status": "Functional"
      },
      {
        "sn": 392,
        "district": "Pathankot",
        "name": "CHC Bungal Badhani",
        "latitude": 32.3382461167527,
        "longitude": 75.768194303773,
        "status": "Functional"
      },
      {
        "sn": 394,
        "district": "Pathankot",
        "name": "PHC Dunera",
        "latitude": 32.4450139886989,
        "longitude": 75.8866426348742,
        "status": "Functional"
      },
      {
        "sn": 395,
        "district": "Pathankot",
        "name": "PHC Bamyal",
        "latitude": 32.2921,
        "longitude": 75.3787,
        "status": "Functional"
      },
      {
        "sn": 397,
        "district": "Pathankot",
        "name": "UPHC Pathankot",
        "latitude": 32.2562350776025,
        "longitude": 75.6508147716728,
        "status": "Functional"
      }
    ],
    "Patiala": [
      {
        "sn": 398,
        "district": "Patiala",
        "name": "DDRC, Near Khalsa College, Patiala",
        "latitude": 30.3358,
        "longitude": 76.3774,
        "status": "Functional"
      },
      {
        "sn": 399,
        "district": "Patiala",
        "name": "Central Jail, Patiala",
        "latitude": 30.34,
        "longitude": 76.38,
        "status": "Functional"
      },
      {
        "sn": 400,
        "district": "Patiala",
        "name": "SDH Rajpura",
        "latitude": 30.483997,
        "longitude": 76.593948,
        "status": "Functional"
      },
      {
        "sn": 401,
        "district": "Patiala",
        "name": "SDH Nabha",
        "latitude": 30.372458,
        "longitude": 76.145979,
        "status": "Functional"
      },
      {
        "sn": 402,
        "district": "Patiala",
        "name": "SDH Samana",
        "latitude": 30.1541,
        "longitude": 76.1977,
        "status": "Functional"
      },
      {
        "sn": 403,
        "district": "Patiala",
        "name": "CHC Bhadson",
        "latitude": 30.48655,
        "longitude": 76.17866,
        "status": "Functional"
      },
      {
        "sn": 404,
        "district": "Patiala",
        "name": "CHC Dudhan Sadhan",
        "latitude": 30.15629,
        "longitude": 76.52739,
        "status": "Functional"
      },
      {
        "sn": 405,
        "district": "Patiala",
        "name": "CHC Ghanaur",
        "latitude": 30.3276,
        "longitude": 76.6062,
        "status": "Functional"
      },
      {
        "sn": 406,
        "district": "Patiala",
        "name": "CHC Kalo Majra",
        "latitude": 30.5214,
        "longitude": 76.6709,
        "status": "Functional"
      },
      {
        "sn": 407,
        "district": "Patiala",
        "name": "CHC Model Town",
        "latitude": 30.341911,
        "longitude": 76.366288,
        "status": "Functional"
      },
      {
        "sn": 408,
        "district": "Patiala",
        "name": "CHC Tripri",
        "latitude": 30.3571944018901,
        "longitude": 76.3899015949185,
        "status": "Functional"
      },
      {
        "sn": 409,
        "district": "Patiala",
        "name": "CHC Badshahpur",
        "latitude": 30.0042,
        "longitude": 76.1705,
        "status": "Functional"
      },
      {
        "sn": 410,
        "district": "Patiala",
        "name": "CHC Patran",
        "latitude": 29.941,
        "longitude": 76.0529,
        "status": "Functional"
      },
      {
        "sn": 411,
        "district": "Patiala",
        "name": "CHC Shurtrana",
        "latitude": 29.9115217,
        "longitude": 76.1168565,
        "status": "Functional"
      },
      {
        "sn": 412,
        "district": "Patiala",
        "name": "New District Jail Nabha Bhawanigarh Road",
        "latitude": 30.372458,
        "longitude": 76.145979,
        "status": "Functional"
      },
      {
        "sn": 413,
        "district": "Patiala",
        "name": "PHC Balbera",
        "latitude": 30.1611,
        "longitude": 76.363,
        "status": "Functional"
      },
      {
        "sn": 414,
        "district": "Patiala",
        "name": "PHC Gharaham",
        "latitude": 30.120808,
        "longitude": 76.480964,
        "status": "Functional"
      },
      {
        "sn": 415,
        "district": "Patiala",
        "name": "CHC Tohra",
        "latitude": 30.5176,
        "longitude": 76.3189,
        "status": "Functional"
      },
      {
        "sn": 416,
        "district": "Patiala",
        "name": "PHC Sojja",
        "latitude": 30.33481,
        "longitude": 76.2359,
        "status": "Functional"
      },
      {
        "sn": 417,
        "district": "Patiala",
        "name": "PHC Ajnoda",
        "latitude": 30.4217,
        "longitude": 76.256,
        "status": "Functional"
      },
      {
        "sn": 418,
        "district": "Patiala",
        "name": "PHC Gajewas",
        "latitude": 30.2011,
        "longitude": 76.1074,
        "status": "Functional"
      },
      {
        "sn": 419,
        "district": "Patiala",
        "name": "PHC Aarno",
        "latitude": 29.8585409730777,
        "longitude": 76.2117079469189,
        "status": "Functional"
      },
      {
        "sn": 420,
        "district": "Patiala",
        "name": "PHC Kauli",
        "latitude": 30.410493,
        "longitude": 76.517041,
        "status": "Functional"
      },
      {
        "sn": 421,
        "district": "Patiala",
        "name": "PHC Gajju Majra",
        "latitude": 30.36117,
        "longitude": 76.32587,
        "status": "Functional"
      },
      {
        "sn": 422,
        "district": "Patiala",
        "name": "PHC Harpalpur",
        "latitude": 30.3967,
        "longitude": 76.59671,
        "status": "Functional"
      },
      {
        "sn": 423,
        "district": "Patiala",
        "name": "UPHC Nabha",
        "latitude": 30.373674,
        "longitude": 76.145187,
        "status": "Functional"
      },
      {
        "sn": 424,
        "district": "Patiala",
        "name": "UPHC Arya Samaj",
        "latitude": 30.333606999318,
        "longitude": 76.4034919110102,
        "status": "Functional"
      },
      {
        "sn": 425,
        "district": "Patiala",
        "name": "UPHC City Branch",
        "latitude": 30.3240616,
        "longitude": 76.4057996,
        "status": "Functional"
      },
      {
        "sn": 426,
        "district": "Patiala",
        "name": "UPHC Sullar",
        "latitude": 30.303316,
        "longitude": 76.392197,
        "status": "Functional"
      },
      {
        "sn": 427,
        "district": "Patiala",
        "name": "UPHC Urban Estate alias Jujhar Nagar",
        "latitude": 30.344033,
        "longitude": 76.422903,
        "status": "Functional"
      },
      {
        "sn": 428,
        "district": "Patiala",
        "name": "UPHC Rajpura 2",
        "latitude": 30.4877429,
        "longitude": 76.5943388,
        "status": "Functional"
      },
      {
        "sn": 429,
        "district": "Patiala",
        "name": "M.K.H. Patiala",
        "latitude": 30.2012,
        "longitude": 76.2356,
        "status": "Functional"
      }
    ],
    "Rupnagar": [
      {
        "sn": 430,
        "district": "Rupnagar",
        "name": "DH Rupnagar",
        "latitude": 30.996,
        "longitude": 76.5251,
        "status": "Functional"
      },
      {
        "sn": 431,
        "district": "Rupnagar",
        "name": "SDH Anandpur Sahib",
        "latitude": 31.234961,
        "longitude": 76.498808,
        "status": "Functional"
      },
      {
        "sn": 432,
        "district": "Rupnagar",
        "name": "CHC Bharatgarh",
        "latitude": 31.096012,
        "longitude": 76.615395,
        "status": "Functional"
      },
      {
        "sn": 433,
        "district": "Rupnagar",
        "name": "CHC Chamkaur Sahib",
        "latitude": 30.8981,
        "longitude": 76.4128,
        "status": "Functional"
      },
      {
        "sn": 434,
        "district": "Rupnagar",
        "name": "CHC Morinda",
        "latitude": 30.7912,
        "longitude": 76.5025,
        "status": "Functional"
      },
      {
        "sn": 435,
        "district": "Rupnagar",
        "name": "CHC Nurpur Bedi",
        "latitude": 31.12498,
        "longitude": 76.43505,
        "status": "Functional"
      },
      {
        "sn": 436,
        "district": "Rupnagar",
        "name": "CH Nangal",
        "latitude": 31.3832,
        "longitude": 76.3766,
        "status": "Functional"
      },
      {
        "sn": 437,
        "district": "Rupnagar",
        "name": "District Jail, Rupnagar",
        "latitude": 30.9536,
        "longitude": 76.5058,
        "status": "Functional"
      },
      {
        "sn": 438,
        "district": "Rupnagar",
        "name": "PHC Purkhali",
        "latitude": 30.931418,
        "longitude": 76.634877,
        "status": "Functional"
      },
      {
        "sn": 439,
        "district": "Rupnagar",
        "name": "PHC Kiratpur Sahib",
        "latitude": 31.1834,
        "longitude": 76.5693,
        "status": "Functional"
      },
      {
        "sn": 440,
        "district": "Rupnagar",
        "name": "PHC Sahjowal",
        "latitude": 31.0391,
        "longitude": 76.6267,
        "status": "Functional"
      },
      {
        "sn": 441,
        "district": "Rupnagar",
        "name": "UPHC Kotla Nihang",
        "latitude": 30.9518,
        "longitude": 76.538,
        "status": "Functional"
      }
    ],
    "Sahibzada Ajit Singh Nagar": [
      {
        "sn": 442,
        "district": "Sahibzada Ajit Singh Nagar",
        "name": "Drug Rehabilitation Centre, Sector-66, SAS Nagar",
        "latitude": 30.675696,
        "longitude": 76.733096,
        "status": "Functional"
      },
      {
        "sn": 443,
        "district": "Sahibzada Ajit Singh Nagar",
        "name": "SDH Kharar",
        "latitude": 30.74,
        "longitude": 76.65,
        "status": "Functional"
      },
      {
        "sn": 444,
        "district": "Sahibzada Ajit Singh Nagar",
        "name": "SDH Dera Bassi",
        "latitude": 30.5848,
        "longitude": 76.845,
        "status": "Functional"
      },
      {
        "sn": 445,
        "district": "Sahibzada Ajit Singh Nagar",
        "name": "CHC Dhakoli",
        "latitude": 30,
        "longitude": 76.65,
        "status": "Functional"
      },
      {
        "sn": 446,
        "district": "Sahibzada Ajit Singh Nagar",
        "name": "CHC Lalru",
        "latitude": 30.491731,
        "longitude": 76.803112,
        "status": "Functional"
      },
      {
        "sn": 447,
        "district": "Sahibzada Ajit Singh Nagar",
        "name": "CHC Banur",
        "latitude": 30.33,
        "longitude": 76.43,
        "status": "Functional"
      },
      {
        "sn": 448,
        "district": "Sahibzada Ajit Singh Nagar",
        "name": "CHC Antala",
        "latitude": 30.39,
        "longitude": 76.91,
        "status": "Functional"
      },
      {
        "sn": 449,
        "district": "Sahibzada Ajit Singh Nagar",
        "name": "CHC Kurali",
        "latitude": 30.8309927,
        "longitude": 76.5748309,
        "status": "Functional"
      },
      {
        "sn": 450,
        "district": "Sahibzada Ajit Singh Nagar",
        "name": "PHC Basauli",
        "latitude": 30.4404,
        "longitude": 76.8663,
        "status": "Non-Functional"
      },
      {
        "sn": 451,
        "district": "Sahibzada Ajit Singh Nagar",
        "name": "PHC Gharuan",
        "latitude": 30.776168,
        "longitude": 76.558198,
        "status": "Functional"
      },
      {
        "sn": 452,
        "district": "Sahibzada Ajit Singh Nagar",
        "name": "PHC Majat",
        "latitude": 30.9413,
        "longitude": 76.6748,
        "status": "Functional"
      },
      {
        "sn": 453,
        "district": "Sahibzada Ajit Singh Nagar",
        "name": "PHC Mullanpur",
        "latitude": 30.593684,
        "longitude": 76.962879,
        "status": "Functional"
      },
      {
        "sn": 454,
        "district": "Sahibzada Ajit Singh Nagar",
        "name": "PHC Chandon",
        "latitude": 30.775738,
        "longitude": 76.665319,
        "status": "Non-Functional"
      },
      {
        "sn": 455,
        "district": "Sahibzada Ajit Singh Nagar",
        "name": "PHC Boothgarh",
        "latitude": 30.83443,
        "longitude": 76.686937,
        "status": "Functional"
      },
      {
        "sn": 456,
        "district": "Sahibzada Ajit Singh Nagar",
        "name": "PHC Palheri",
        "latitude": 30.78918,
        "longitude": 76.69281,
        "status": "Functional"
      },
      {
        "sn": 457,
        "district": "Sahibzada Ajit Singh Nagar",
        "name": "PHC Khijrabad",
        "latitude": 30.875083,
        "longitude": 76.654997,
        "status": "Functional"
      },
      {
        "sn": 458,
        "district": "Sahibzada Ajit Singh Nagar",
        "name": "UPHC Baltana",
        "latitude": 30.36566,
        "longitude": 76.52436,
        "status": "Functional"
      },
      {
        "sn": 459,
        "district": "Sahibzada Ajit Singh Nagar",
        "name": "UPHC Preet Colony",
        "latitude": 30.65058,
        "longitude": 76.825287,
        "status": "Non-Functional"
      },
      {
        "sn": 460,
        "district": "Sahibzada Ajit Singh Nagar",
        "name": "UPHC Mundi Kharar",
        "latitude": 31.00369,
        "longitude": 76.54277,
        "status": "Functional"
      },
      {
        "sn": 461,
        "district": "Sahibzada Ajit Singh Nagar",
        "name": "UPHC Nayagaon",
        "latitude": 30.7738620007025,
        "longitude": 76.7932576402802,
        "status": "Functional"
      },
      {
        "sn": 462,
        "district": "Sahibzada Ajit Singh Nagar",
        "name": "UPHC Phase 1",
        "latitude": 30.4351,
        "longitude": 76.439,
        "status": "Functional"
      },
      {
        "sn": 463,
        "district": "Sahibzada Ajit Singh Nagar",
        "name": "UPHC Phase 11",
        "latitude": 30.4045,
        "longitude": 76.4451,
        "status": "Functional"
      },
      {
        "sn": 464,
        "district": "Sahibzada Ajit Singh Nagar",
        "name": "UPHC Phase VII",
        "latitude": 30.70593,
        "longitude": 76.7264577,
        "status": "Functional"
      },
      {
        "sn": 465,
        "district": "Sahibzada Ajit Singh Nagar",
        "name": "DH Mohali",
        "latitude": 30.71805,
        "longitude": 76.729233,
        "status": "Functional"
      }
    ],
    "Sangrur": [
      {
        "sn": 466,
        "district": "Sangrur",
        "name": "Drug Rehabilitation Centre, Village Ghabdah, Sangrur",
        "latitude": 30.257634,
        "longitude": 75.9580833,
        "status": "Functional"
      },
      {
        "sn": 467,
        "district": "Sangrur",
        "name": "SDH Dhuri",
        "latitude": 30.373501,
        "longitude": 75.863197,
        "status": "Functional"
      },
      {
        "sn": 468,
        "district": "Sangrur",
        "name": "SDH Malerkotla",
        "latitude": 30.5198017,
        "longitude": 75.8763359,
        "status": "Functional"
      },
      {
        "sn": 469,
        "district": "Sangrur",
        "name": "SDH Sunam",
        "latitude": 30.1306,
        "longitude": 75.8014,
        "status": "Functional"
      },
      {
        "sn": 470,
        "district": "Sangrur",
        "name": "SDH Moonak",
        "latitude": 29.8225,
        "longitude": 75.8885,
        "status": "Functional"
      },
      {
        "sn": 471,
        "district": "Sangrur",
        "name": "CHC Amargarh",
        "latitude": 30.4633362,
        "longitude": 76.0127534,
        "status": "Functional"
      },
      {
        "sn": 472,
        "district": "Sangrur",
        "name": "CHC Bhawanigarh",
        "latitude": 30.2614,
        "longitude": 76.0333,
        "status": "Functional"
      },
      {
        "sn": 473,
        "district": "Sangrur",
        "name": "CHC Ahmadgarh",
        "latitude": 30.6795912,
        "longitude": 75.826819,
        "status": "Functional"
      },
      {
        "sn": 474,
        "district": "Sangrur",
        "name": "CHC Kauhrian",
        "latitude": 29.9921,
        "longitude": 75.9144,
        "status": "Functional"
      },
      {
        "sn": 475,
        "district": "Sangrur",
        "name": "CHC Dirba",
        "latitude": 30.0684,
        "longitude": 75.9861,
        "status": "Functional"
      },
      {
        "sn": 476,
        "district": "Sangrur",
        "name": "CHC Longowal",
        "latitude": 30.2001,
        "longitude": 75.6755,
        "status": "Functional"
      },
      {
        "sn": 477,
        "district": "Sangrur",
        "name": "CHC Lehargaga",
        "latitude": 29.9354,
        "longitude": 75.8106,
        "status": "Functional"
      },
      {
        "sn": 478,
        "district": "Sangrur",
        "name": "CHC Sherpur",
        "latitude": 31.0444,
        "longitude": 75.5946,
        "status": "Functional"
      },
      {
        "sn": 479,
        "district": "Sangrur",
        "name": "DH Sangrur",
        "latitude": 30.252,
        "longitude": 75.8357,
        "status": "Functional"
      },
      {
        "sn": 480,
        "district": "Sangrur",
        "name": "DISTRICT JAIL SANGRUR",
        "latitude": 30.2476,
        "longitude": 75.8248,
        "status": "Functional"
      },
      {
        "sn": 481,
        "district": "Sangrur",
        "name": "CHC Maniana",
        "latitude": 29.7473,
        "longitude": 75.9238,
        "status": "Functional"
      },
      {
        "sn": 482,
        "district": "Sangrur",
        "name": "PHC Mandvi",
        "latitude": 29.8089,
        "longitude": 75.9884,
        "status": "Functional"
      },
      {
        "sn": 483,
        "district": "Sangrur",
        "name": "PHC Shadi Heri",
        "latitude": 29.9569,
        "longitude": 75.9681,
        "status": "Functional"
      },
      {
        "sn": 484,
        "district": "Sangrur",
        "name": "PHC Fatehgarh Panj Garian",
        "latitude": 30.5227,
        "longitude": 75.7052,
        "status": "Functional"
      },
      {
        "sn": 485,
        "district": "Sangrur",
        "name": "UPHC Lal Bazar Malerkotla",
        "latitude": 30.5324491,
        "longitude": 75.8827206,
        "status": "Functional"
      },
      {
        "sn": 486,
        "district": "Sangrur",
        "name": "UPHC Qilla Rehmat Garh",
        "latitude": 30.5328748,
        "longitude": 75.8938118,
        "status": "Functional"
      },
      {
        "sn": 487,
        "district": "Sangrur",
        "name": "UPHC 1 Dhuri",
        "latitude": 30.3693,
        "longitude": 75.8607,
        "status": "Functional"
      },
      {
        "sn": 488,
        "district": "Sangrur",
        "name": "UPHC 1 Sangrur",
        "latitude": 30.2299,
        "longitude": 75.8258,
        "status": "Functional"
      },
      {
        "sn": 489,
        "district": "Sangrur",
        "name": "UPHC 1 Sunam",
        "latitude": 30.1306,
        "longitude": 75.81269,
        "status": "Functional"
      },
      {
        "sn": 490,
        "district": "Sangrur",
        "name": "PHC Kup Kalan",
        "latitude": 30.6164856,
        "longitude": 75.8796585,
        "status": "Functional"
      },
      {
        "sn": 491,
        "district": "Sangrur",
        "name": "PHC Sant Attar Singh RH Cheema",
        "latitude": 30.0939,
        "longitude": 75.6855,
        "status": "Functional"
      }
    ],
    "Shaheed Bhagat Singh Nagar": [
      {
        "sn": 492,
        "district": "Shaheed Bhagat Singh Nagar",
        "name": "Drug Rehabilitation Centre, Old DH, Nawanshahr",
        "latitude": 31.116245,
        "longitude": 76.155567,
        "status": "Functional"
      },
      {
        "sn": 493,
        "district": "Shaheed Bhagat Singh Nagar",
        "name": "SDH Balachaur",
        "latitude": 31.076006,
        "longitude": 76.29473,
        "status": "Functional"
      },
      {
        "sn": 494,
        "district": "Shaheed Bhagat Singh Nagar",
        "name": "CHC Rahon",
        "latitude": 31.061666,
        "longitude": 76.116658,
        "status": "Functional"
      },
      {
        "sn": 495,
        "district": "Shaheed Bhagat Singh Nagar",
        "name": "CHC Banga",
        "latitude": 31.184412,
        "longitude": 75.9958,
        "status": "Functional"
      },
      {
        "sn": 496,
        "district": "Shaheed Bhagat Singh Nagar",
        "name": "CHC Mukandpur",
        "latitude": 31.126351,
        "longitude": 75.948515,
        "status": "Functional"
      },
      {
        "sn": 497,
        "district": "Shaheed Bhagat Singh Nagar",
        "name": "CHC Saroya",
        "latitude": 31.180004,
        "longitude": 76.235161,
        "status": "Functional"
      },
      {
        "sn": 498,
        "district": "Shaheed Bhagat Singh Nagar",
        "name": "PHC Kathgarh",
        "latitude": 31.042169,
        "longitude": 76.376976,
        "status": "Functional"
      },
      {
        "sn": 500,
        "district": "Shaheed Bhagat Singh Nagar",
        "name": "PHC Aur",
        "latitude": 31.06913,
        "longitude": 76.000803,
        "status": "Functional"
      },
      {
        "sn": 501,
        "district": "Shaheed Bhagat Singh Nagar",
        "name": "PHC Muzaffarpur",
        "latitude": 31.043303,
        "longitude": 76.226084,
        "status": "Functional"
      },
      {
        "sn": 502,
        "district": "Shaheed Bhagat Singh Nagar",
        "name": "PHC Jadla",
        "latitude": 31.081952,
        "longitude": 76.216072,
        "status": "Functional"
      },
      {
        "sn": 503,
        "district": "Shaheed Bhagat Singh Nagar",
        "name": "PHC Sujjon",
        "latitude": 31.208869,
        "longitude": 76.072209,
        "status": "Functional"
      },
      {
        "sn": 505,
        "district": "Shaheed Bhagat Singh Nagar",
        "name": "PHC Behram",
        "latitude": 31.204629,
        "longitude": 75.893671,
        "status": "Functional"
      },
      {
        "sn": 506,
        "district": "Shaheed Bhagat Singh Nagar",
        "name": "UPHC Nawanshahar",
        "latitude": 31.12232,
        "longitude": 76.110979,
        "status": "Functional"
      }
    ],
    "Tarn Taran": [
      {
        "sn": 507,
        "district": "Tarn Taran",
        "name": "Drug Rehabilitation Centre, Village Tharu, Tarn Taran",
        "latitude": 31.477625,
        "longitude": 74.878764,
        "status": "Functional"
      },
      {
        "sn": 508,
        "district": "Tarn Taran",
        "name": "Drug Rehabilitation Centre, Vill. Bhagupur Havelian, Tarn Taran",
        "latitude": 31.247224,
        "longitude": 74.838058,
        "status": "Functional"
      },
      {
        "sn": 509,
        "district": "Tarn Taran",
        "name": "SDH Khadoor Sahib",
        "latitude": 31.359638,
        "longitude": 75.141096,
        "status": "Functional"
      },
      {
        "sn": 510,
        "district": "Tarn Taran",
        "name": "CHC Mianwind",
        "latitude": 31.480773,
        "longitude": 75.154572,
        "status": "Functional"
      },
      {
        "sn": 511,
        "district": "Tarn Taran",
        "name": "CHC Ghariala",
        "latitude": 31.228948,
        "longitude": 74.738118,
        "status": "Functional"
      },
      {
        "sn": 512,
        "district": "Tarn Taran",
        "name": "CHC Sirhali",
        "latitude": 31.099691,
        "longitude": 74.915742,
        "status": "Functional"
      },
      {
        "sn": 513,
        "district": "Tarn Taran",
        "name": "CHC Sur Singh Wala",
        "latitude": 31.391763,
        "longitude": 74.723967,
        "status": "Functional"
      },
      {
        "sn": 514,
        "district": "Tarn Taran",
        "name": "CHC Naushera Pannuan",
        "latitude": 31.339815,
        "longitude": 74.956008,
        "status": "Functional"
      },
      {
        "sn": 515,
        "district": "Tarn Taran",
        "name": "CHC Khem Karan",
        "latitude": 31.144545,
        "longitude": 74.568848,
        "status": "Functional"
      },
      {
        "sn": 516,
        "district": "Tarn Taran",
        "name": "CHC Kairon",
        "latitude": 31.327125,
        "longitude": 74.864351,
        "status": "Functional"
      },
      {
        "sn": 517,
        "district": "Tarn Taran",
        "name": "CHC Hari Ke Pattan",
        "latitude": 31.16666,
        "longitude": 74.945748,
        "status": "Functional"
      },
      {
        "sn": 518,
        "district": "Tarn Taran",
        "name": "CHC Kasel",
        "latitude": 31.539207,
        "longitude": 74.748535,
        "status": "Functional"
      },
      {
        "sn": 519,
        "district": "Tarn Taran",
        "name": "CHC Brahmpura",
        "latitude": 31.290114,
        "longitude": 75.019995,
        "status": "Functional"
      },
      {
        "sn": 520,
        "district": "Tarn Taran",
        "name": "DH Tarn Taran",
        "latitude": 31.480773,
        "longitude": 75.154572,
        "status": "Functional"
      },
      {
        "sn": 521,
        "district": "Tarn Taran",
        "name": "SDH Patti",
        "latitude": 31.279671,
        "longitude": 74.867186,
        "status": "Functional"
      },
      {
        "sn": 522,
        "district": "Tarn Taran",
        "name": "PHC Bhikhiwind",
        "latitude": 31.346042,
        "longitude": 74.693795,
        "status": "Functional"
      },
      {
        "sn": 523,
        "district": "Tarn Taran",
        "name": "PHC Kirtowal",
        "latitude": 31.18895,
        "longitude": 74.891831,
        "status": "Functional"
      },
      {
        "sn": 524,
        "district": "Tarn Taran",
        "name": "PHC Rajoke",
        "latitude": 31.240658,
        "longitude": 75.022039,
        "status": "Functional"
      },
      {
        "sn": 525,
        "district": "Tarn Taran",
        "name": "PHC Goindwal",
        "latitude": 31.367576,
        "longitude": 75.156367,
        "status": "Functional"
      },
      {
        "sn": 526,
        "district": "Tarn Taran",
        "name": "PHC Dhotian",
        "latitude": 31.37587,
        "longitude": 75.001954,
        "status": "Functional"
      },
      {
        "sn": 527,
        "district": "Tarn Taran",
        "name": "PHC Chhabhal",
        "latitude": 31.483997,
        "longitude": 74.792433,
        "status": "Functional"
      },
      {
        "sn": 528,
        "district": "Tarn Taran",
        "name": "PHC Delka",
        "latitude": 31.416239,
        "longitude": 74.874486,
        "status": "Functional"
      },
      {
        "sn": 529,
        "district": "Tarn Taran",
        "name": "Central Jail Sri Goindwal Sahib",
        "latitude": 31.357278,
        "longitude": 75.132645,
        "status": "Functional"
      }
    ],
    "GURU HAR SAHAI": [
      {
        "sn": 530,
        "district": "GURU HAR SAHAI",
        "name": "HAKIM KISHORI LAL HOSPITAL PVT. LTD.",
        "latitude": 30.7105367,
        "longitude": 74.3990735,
        "status": "Non-Functional"
      }
    ],
    "SAS nagar Mohali": [
      {
        "sn": 531,
        "district": "SAS nagar Mohali",
        "name": "CHC Lalru",
        "latitude": 30.4916,
        "longitude": 76.8029,
        "status": "Functional"
      }
    ]
  },
  "metadata": {
    "total": 512,
    "districts": 24,
    "functional": 487,
    "nonFunctional": 24,
    "generatedAt": "2026-01-21T06:42:13.586Z"
  }
}